{  "type": "FeatureCollection", "name": "map1_cons", "crs": { "type": "name", "properties": { "name": "urn:ogc:def:crs:OGC:1.3:CRS84" } }, "features": [
{ "type": "Feature",  "properties": {  "JAEDType": "VarLoad", "CustomerID": "1112174296", "FromBus": "124027629391060017740", "CustomerName": "FOLEY -MARBETH - BEACH HS.", "Address": "BANTIGUE-LUYANG -CARMEN", "CustomerType": "C", "PeriodCovered": "201902", "NumberOfDays": "31", "NumberOfHours": "744", "KWHR_month": "4839", "pf": "0.95", "Picture": ""}, "geometry": {  "type": "Point",  "coordinates": [ 124.027629388102, 10.6001773997232 ]  } }
 , 
{ "type": "Feature",  "properties": {  "JAEDType": "VarLoad", "CustomerID": "1016132758", "FromBus": "124026299371062446240", "CustomerName": "TAGALOG -HERBETH", "Address": "BINONGKALAN-BUYO -CATMON", "CustomerType": "R", "PeriodCovered": "201902", "NumberOfDays": "31", "NumberOfHours": "744", "KWHR_month": "132", "pf": "0.95", "Picture": ""}, "geometry": {  "type": "Point",  "coordinates": [ 124.026299373311, 10.6244624049053 ]  } }
 , 
{ "type": "Feature",  "properties": {  "JAEDType": "VarLoad", "CustomerID": "1010075647", "FromBus": "124026310471062445420", "CustomerName": "QUISEO -MERILON/NERISSA #02", "Address": "BINONGKALAN -CATMON", "CustomerType": "C", "PeriodCovered": "201902", "NumberOfDays": "31", "NumberOfHours": "744", "KWHR_month": "1", "pf": "0.95", "Picture": ""}, "geometry": {  "type": "Point",  "coordinates": [ 124.026310473311, 10.6244542049053 ]  } }
 , 
{ "type": "Feature",  "properties": {  "JAEDType": "VarLoad", "CustomerID": "1150035577", "FromBus": "124021440151060117215", "CustomerName": "GOLDEN HARVEST POND -INC.", "Address": "LUYANG -CARMEN -CEBU", "CustomerType": "HVC", "PeriodCovered": "201902", "NumberOfDays": "31", "NumberOfHours": "744", "KWHR_month": "145649", "pf": "0.95", "Picture": ""}, "geometry": {  "type": "Point",  "coordinates": [ 124.021440154796, 10.6011721505186 ]  } }
 , 
{ "type": "Feature",  "properties": {  "JAEDType": "VarLoad", "CustomerID": "1125065991", "FromBus": "124019191181059509252", "CustomerName": "CARMEN NATL. HIGH SCHOOL #01", "Address": "COGON WEST -CARMEN", "CustomerType": "P", "PeriodCovered": "201902", "NumberOfDays": "31", "NumberOfHours": "744", "KWHR_month": "3439", "pf": "0.95", "Picture": ""}, "geometry": {  "type": "Point",  "coordinates": [ 124.01919117647, 10.5950925172269 ]  } }
 , 
{ "type": "Feature",  "properties": {  "JAEDType": "VarLoad", "CustomerID": "1103145325", "FromBus": "124019161431059511789", "CustomerName": "VILLAMOR -REX CHRISTIAN/LOVEYEEN", "Address": "LUYANG -CARMEN", "CustomerType": "C", "PeriodCovered": "201902", "NumberOfDays": "31", "NumberOfHours": "744", "KWHR_month": "5679", "pf": "0.95", "Picture": ""}, "geometry": {  "type": "Point",  "coordinates": [ 124.019161430504, 10.5951178949075 ]  } }
 , 
{ "type": "Feature",  "properties": {  "JAEDType": "VarLoad", "CustomerID": "1150145356", "FromBus": "124017551861059205659", "CustomerName": "METRO GAISANO CARMEN C/O VALUE SHOP", "Address": "COGON WEST -CARMEN", "CustomerType": "HVC", "PeriodCovered": "201902", "NumberOfDays": "31", "NumberOfHours": "744", "KWHR_month": "67577", "pf": "0.95", "Picture": ""}, "geometry": {  "type": "Point",  "coordinates": [ 124.017551863761, 10.5920565883196 ]  } }
 , 
{ "type": "Feature",  "properties": {  "JAEDType": "VarLoad", "CustomerID": "1116032855", "FromBus": "124024119151059864426", "CustomerName": "SALBA -ABRAHAM/MYRNA", "Address": "LUYANG -CARMEN", "CustomerType": "R", "PeriodCovered": "201902", "NumberOfDays": "31", "NumberOfHours": "744", "KWHR_month": "410", "pf": "0.95", "Picture": ""}, "geometry": {  "type": "Point",  "coordinates": [ 124.024119146668, 10.5986442573552 ]  } }
 , 
{ "type": "Feature",  "properties": {  "JAEDType": "VarLoad", "CustomerID": "1112176118", "FromBus": "124032451641058632601", "CustomerName": "ALLEGO -ARTHUR VINCE (SLB)", "Address": "BANTIGUE -LUYANG -CARMEN", "CustomerType": "T", "PeriodCovered": "201902", "NumberOfDays": "31", "NumberOfHours": "744", "KWHR_month": "1", "pf": "0.95", "Picture": ""}, "geometry": {  "type": "Point",  "coordinates": [ 124.032451642148, 10.5863260125924 ]  } }
 , 
{ "type": "Feature",  "properties": {  "JAEDType": "VarLoad", "CustomerID": "1112136308", "FromBus": "124029532941059082930", "CustomerName": "GARBO -ARCHIE/MARJORIE BEJOC", "Address": "MALBAGO-LUYANG -CARMEN", "CustomerType": "R", "PeriodCovered": "201902", "NumberOfDays": "31", "NumberOfHours": "744", "KWHR_month": "1", "pf": "0.95", "Picture": ""}, "geometry": {  "type": "Point",  "coordinates": [ 124.029532944526, 10.590829297287 ]  } }
 , 
{ "type": "Feature",  "properties": {  "JAEDType": "VarLoad", "CustomerID": "1005175674", "FromBus": "124022843661065058495", "CustomerName": "JORING -EZRAEL", "Address": "PANALIPAN -CATMON", "CustomerType": "R", "PeriodCovered": "201902", "NumberOfDays": "31", "NumberOfHours": "744", "KWHR_month": "40", "pf": "0.95", "Picture": ""}, "geometry": {  "type": "Point",  "coordinates": [ 124.022843660508, 10.6505849542637 ]  } }
 , 
{ "type": "Feature",  "properties": {  "JAEDType": "VarLoad", "CustomerID": "1010175642", "FromBus": "124025576801064758952", "CustomerName": "SELLON -PATRICK B.", "Address": "PUROK 4 -PANALIPAN -CATMON", "CustomerType": "R", "PeriodCovered": "201902", "NumberOfDays": "31", "NumberOfHours": "744", "KWHR_month": "33", "pf": "0.95", "Picture": ""}, "geometry": {  "type": "Point",  "coordinates": [ 124.025576800179, 10.6475895214925 ]  } }
 , 
{ "type": "Feature",  "properties": {  "JAEDType": "VarLoad", "CustomerID": "1005175612", "FromBus": "124022852301064926510", "CustomerName": "ROILO -RUBEN/SOFRONIA #03", "Address": "PANALIPAN II -CATMON", "CustomerType": "R", "PeriodCovered": "201902", "NumberOfDays": "31", "NumberOfHours": "744", "KWHR_month": "14", "pf": "0.95", "Picture": ""}, "geometry": {  "type": "Point",  "coordinates": [ 124.022852299594, 10.6492651041352 ]  } }
 , 
{ "type": "Feature",  "properties": {  "JAEDType": "VarLoad", "CustomerID": "1005175539", "FromBus": "124024524631064987000", "CustomerName": "COLE -VICENTE/ELMA", "Address": "PANALIPAN -CATMON", "CustomerType": "R", "PeriodCovered": "201902", "NumberOfDays": "31", "NumberOfHours": "744", "KWHR_month": "50", "pf": "0.95", "Picture": ""}, "geometry": {  "type": "Point",  "coordinates": [ 124.02452462576, 10.6498700041603 ]  } }
 , 
{ "type": "Feature",  "properties": {  "JAEDType": "VarLoad", "CustomerID": "1117175873", "FromBus": "124023875671059862632", "CustomerName": "PASANA -ALEJANDRO/JOSEPHINE #06", "Address": "BLISS -LUYANG -CARMEN", "CustomerType": "R", "PeriodCovered": "201902", "NumberOfDays": "31", "NumberOfHours": "744", "KWHR_month": "82", "pf": "0.95", "Picture": ""}, "geometry": {  "type": "Point",  "coordinates": [ 124.023875668942, 10.5986263230666 ]  } }
 , 
{ "type": "Feature",  "properties": {  "JAEDType": "VarLoad", "CustomerID": "1101175569", "FromBus": "124018228101062264669", "CustomerName": "CUENCO -JULIE", "Address": "FUENTE -CARMEN", "CustomerType": "R", "PeriodCovered": "201902", "NumberOfDays": "31", "NumberOfHours": "744", "KWHR_month": "1", "pf": "0.95", "Picture": ""}, "geometry": {  "type": "Point",  "coordinates": [ 124.018228102628, 10.6226466947633 ]  } }
 , 
{ "type": "Feature",  "properties": {  "JAEDType": "VarLoad", "CustomerID": "1111175496", "FromBus": "124022395211059985049", "CustomerName": "LATO -KINT VINCENT/JOSEPHINE", "Address": "PASAMANOS-DAWIS SUR -CARMEN", "CustomerType": "R", "PeriodCovered": "201902", "NumberOfDays": "31", "NumberOfHours": "744", "KWHR_month": "21", "pf": "0.95", "Picture": ""}, "geometry": {  "type": "Point",  "coordinates": [ 124.02239520995, 10.5998504854307 ]  } }
 , 
{ "type": "Feature",  "properties": {  "JAEDType": "VarLoad", "CustomerID": "1001175044", "FromBus": "124001835201064436471", "CustomerName": "TATOY -ALBERT/ZENAIDA #02", "Address": "SAN JOSE -CATMON", "CustomerType": "R", "PeriodCovered": "201902", "NumberOfDays": "31", "NumberOfHours": "744", "KWHR_month": "29", "pf": "0.95", "Picture": ""}, "geometry": {  "type": "Point",  "coordinates": [ 124.001835201609, 10.6443647085453 ]  } }
 , 
{ "type": "Feature",  "properties": {  "JAEDType": "VarLoad", "CustomerID": "1010175049", "FromBus": "124024618021063903127", "CustomerName": "PUPA -ROMAN", "Address": "TALISAY-BINONGKALAN -CATMON", "CustomerType": "R", "PeriodCovered": "201902", "NumberOfDays": "31", "NumberOfHours": "744", "KWHR_month": "25", "pf": "0.95", "Picture": ""}, "geometry": {  "type": "Point",  "coordinates": [ 124.024618015588, 10.6390312683847 ]  } }
 , 
{ "type": "Feature",  "properties": {  "JAEDType": "VarLoad", "CustomerID": "1006174504", "FromBus": "124025944721064537563", "CustomerName": "MUNEZ -ELBERTO", "Address": "SAN MIGUEL-SAN JOSE -CATMON", "CustomerType": "R", "PeriodCovered": "201902", "NumberOfDays": "31", "NumberOfHours": "744", "KWHR_month": "1", "pf": "0.95", "Picture": ""}, "geometry": {  "type": "Point",  "coordinates": [ 124.02594471642, 10.6453756283175 ]  } }
 , 
{ "type": "Feature",  "properties": {  "JAEDType": "VarLoad", "CustomerID": "1002174701", "FromBus": "124026262811062691917", "CustomerName": "COLOSCOS -JOSHUA CEASAR", "Address": "BONIFACIO ST.-CORAZON -CATMON", "CustomerType": "R", "PeriodCovered": "201902", "NumberOfDays": "31", "NumberOfHours": "744", "KWHR_month": "1", "pf": "0.95", "Picture": ""}, "geometry": {  "type": "Point",  "coordinates": [ 124.026262810875, 10.6269191671876 ]  } }
 , 
{ "type": "Feature",  "properties": {  "JAEDType": "VarLoad", "CustomerID": "1015174983", "FromBus": "124006301041064015078", "CustomerName": "BRANZUELA -MICHELE #01", "Address": "STO. NIÑO -FLORES -CATMON", "CustomerType": "R", "PeriodCovered": "201902", "NumberOfDays": "31", "NumberOfHours": "744", "KWHR_month": "48", "pf": "0.95", "Picture": ""}, "geometry": {  "type": "Point",  "coordinates": [ 124.006301043007, 10.640150784702 ]  } }
 , 
{ "type": "Feature",  "properties": {  "JAEDType": "VarLoad", "CustomerID": "1101174587", "FromBus": "124025898151062306052", "CustomerName": "MAKIPIG -CRYSTAL FAITH ALVAREZ", "Address": "BUYO -PUENTE -CARMEN", "CustomerType": "R", "PeriodCovered": "201902", "NumberOfDays": "31", "NumberOfHours": "744", "KWHR_month": "44", "pf": "0.95", "Picture": ""}, "geometry": {  "type": "Point",  "coordinates": [ 124.025898154736, 10.6230605204906 ]  } }
 , 
{ "type": "Feature",  "properties": {  "JAEDType": "VarLoad", "CustomerID": "1010173976", "FromBus": "124024734551063953144", "CustomerName": "COMPASADO -JESUS", "Address": "TALISAY-BINONGKALAN -CATMON", "CustomerType": "R", "PeriodCovered": "201902", "NumberOfDays": "31", "NumberOfHours": "744", "KWHR_month": "37", "pf": "0.95", "Picture": ""}, "geometry": {  "type": "Point",  "coordinates": [ 124.024734554538, 10.6395314398192 ]  } }
 , 
{ "type": "Feature",  "properties": {  "JAEDType": "VarLoad", "CustomerID": "1010173969", "FromBus": "124025103261064255453", "CustomerName": "MOLLENO -FLORANTE #02", "Address": "PANALIPAN -CATMON", "CustomerType": "R", "PeriodCovered": "201902", "NumberOfDays": "31", "NumberOfHours": "744", "KWHR_month": "542", "pf": "0.95", "Picture": ""}, "geometry": {  "type": "Point",  "coordinates": [ 124.025103255663, 10.6425545324504 ]  } }
 , 
{ "type": "Feature",  "properties": {  "JAEDType": "VarLoad", "CustomerID": "1021174048", "FromBus": "124001635401063977600", "CustomerName": "PORIO -ZALDE/JODELYN", "Address": "MANLAYAG-PANALIPAN -CATMON", "CustomerType": "R", "PeriodCovered": "201902", "NumberOfDays": "31", "NumberOfHours": "744", "KWHR_month": "7", "pf": "0.95", "Picture": ""}, "geometry": {  "type": "Point",  "coordinates": [ 124.001635404458, 10.6397760032128 ]  } }
 , 
{ "type": "Feature",  "properties": {  "JAEDType": "VarLoad", "CustomerID": "1101173937", "FromBus": "124026461941061097939", "CustomerName": "AMAGA -IVY MARIE B.", "Address": "FUENTE -CARMEN", "CustomerType": "R", "PeriodCovered": "201902", "NumberOfDays": "31", "NumberOfHours": "744", "KWHR_month": "16", "pf": "0.95", "Picture": ""}, "geometry": {  "type": "Point",  "coordinates": [ 124.026461941699, 10.6109793888133 ]  } }
 , 
{ "type": "Feature",  "properties": {  "JAEDType": "VarLoad", "CustomerID": "1110173893", "FromBus": "124015420621058646682", "CustomerName": "ABALOS -LOLITA", "Address": "BARING -CARMEN", "CustomerType": "R", "PeriodCovered": "201902", "NumberOfDays": "31", "NumberOfHours": "744", "KWHR_month": "180", "pf": "0.95", "Picture": ""}, "geometry": {  "type": "Point",  "coordinates": [ 124.015420615062, 10.58646681656 ]  } }
 , 
{ "type": "Feature",  "properties": {  "JAEDType": "VarLoad", "CustomerID": "1120173853", "FromBus": "124014297551058691851", "CustomerName": "CONDE -JOHN MICHAEL/CHERRY", "Address": "BARING -CARMEN", "CustomerType": "R", "PeriodCovered": "201902", "NumberOfDays": "31", "NumberOfHours": "744", "KWHR_month": "39", "pf": "0.95", "Picture": ""}, "geometry": {  "type": "Point",  "coordinates": [ 124.014297546496, 10.5869185139431 ]  } }
 , 
{ "type": "Feature",  "properties": {  "JAEDType": "VarLoad", "CustomerID": "1116173771", "FromBus": "124020862611059728469", "CustomerName": "PENALES -KIMBERLENE", "Address": "LUYANG -CARMEN", "CustomerType": "R", "PeriodCovered": "201902", "NumberOfDays": "31", "NumberOfHours": "744", "KWHR_month": "1", "pf": "0.95", "Picture": ""}, "geometry": {  "type": "Point",  "coordinates": [ 124.020862606594, 10.5972846880366 ]  } }
 , 
{ "type": "Feature",  "properties": {  "JAEDType": "VarLoad", "CustomerID": "1112173769", "FromBus": "124029366881059171655", "CustomerName": "LEDESMA -DANN SERAPHIN #02", "Address": "MALBAGO -LUYANG -CARMEN", "CustomerType": "R", "PeriodCovered": "201902", "NumberOfDays": "31", "NumberOfHours": "744", "KWHR_month": "23", "pf": "0.95", "Picture": ""}, "geometry": {  "type": "Point",  "coordinates": [ 124.029366883412, 10.5917165528581 ]  } }
 , 
{ "type": "Feature",  "properties": {  "JAEDType": "VarLoad", "CustomerID": "1107173584", "FromBus": "124019397541059149883", "CustomerName": "ENRIQUEZ -IMELDA S.", "Address": "COGON EAST -CARMEN", "CustomerType": "R", "PeriodCovered": "201902", "NumberOfDays": "31", "NumberOfHours": "744", "KWHR_month": "409", "pf": "0.95", "Picture": ""}, "geometry": {  "type": "Point",  "coordinates": [ 124.019397539431, 10.5914988290757 ]  } }
 , 
{ "type": "Feature",  "properties": {  "JAEDType": "VarLoad", "CustomerID": "1120173574", "FromBus": "124014006911058630645", "CustomerName": "PERALTA -JULITO", "Address": "BARING -CARMEN", "CustomerType": "R", "PeriodCovered": "201902", "NumberOfDays": "31", "NumberOfHours": "744", "KWHR_month": "53", "pf": "0.95", "Picture": ""}, "geometry": {  "type": "Point",  "coordinates": [ 124.014006907112, 10.5863064460352 ]  } }
 , 
{ "type": "Feature",  "properties": {  "JAEDType": "VarLoad", "CustomerID": "1118173575", "FromBus": "124017124641059425312", "CustomerName": "ABELLA -ABELARDO/OLIVA", "Address": "COGON WEST -CARMEN", "CustomerType": "C", "PeriodCovered": "201902", "NumberOfDays": "31", "NumberOfHours": "744", "KWHR_month": "172", "pf": "0.95", "Picture": ""}, "geometry": {  "type": "Point",  "coordinates": [ 124.01712463597, 10.5942531247911 ]  } }
 , 
{ "type": "Feature",  "properties": {  "JAEDType": "VarLoad", "CustomerID": "1112173355", "FromBus": "124029874791059351774", "CustomerName": "JAYSON -EMELIE S.", "Address": "MALBAGO -LUYANG -CARMEN", "CustomerType": "R", "PeriodCovered": "201902", "NumberOfDays": "31", "NumberOfHours": "744", "KWHR_month": "97", "pf": "0.95", "Picture": ""}, "geometry": {  "type": "Point",  "coordinates": [ 124.029874785266, 10.5935177424768 ]  } }
 , 
{ "type": "Feature",  "properties": {  "JAEDType": "VarLoad", "CustomerID": "1010174325", "FromBus": "124026028891063672289", "CustomerName": "LUARDO -ROSELYN", "Address": "PANALIPAN -CATMON", "CustomerType": "R", "PeriodCovered": "201902", "NumberOfDays": "31", "NumberOfHours": "744", "KWHR_month": "5", "pf": "0.95", "Picture": ""}, "geometry": {  "type": "Point",  "coordinates": [ 124.026028893356, 10.6367228943546 ]  } }
 , 
{ "type": "Feature",  "properties": {  "JAEDType": "VarLoad", "CustomerID": "1110173353", "FromBus": "124016099061058808037", "CustomerName": "DAMILES -AL SILVESTRE/LIZA #02", "Address": "KANGYAN -CARMEN -", "CustomerType": "R", "PeriodCovered": "201902", "NumberOfDays": "31", "NumberOfHours": "744", "KWHR_month": "84", "pf": "0.95", "Picture": ""}, "geometry": {  "type": "Point",  "coordinates": [ 124.016099060478, 10.5880803675936 ]  } }
 , 
{ "type": "Feature",  "properties": {  "JAEDType": "VarLoad", "CustomerID": "1016174331", "FromBus": "124027220591062818913", "CustomerName": "ROJAS -PEDRO/GERTRODES M.", "Address": "BUYO -BINONGKALAN -CATMON", "CustomerType": "R", "PeriodCovered": "201902", "NumberOfDays": "31", "NumberOfHours": "744", "KWHR_month": "62", "pf": "0.95", "Picture": ""}, "geometry": {  "type": "Point",  "coordinates": [ 124.027220592589, 10.6281891298236 ]  } }
 , 
{ "type": "Feature",  "properties": {  "JAEDType": "VarLoad", "CustomerID": "1112173043", "FromBus": "124026394381059202267", "CustomerName": "CASAS -ALMA", "Address": "MALBAGO-LUYANG -CARMEN", "CustomerType": "R", "PeriodCovered": "201902", "NumberOfDays": "31", "NumberOfHours": "744", "KWHR_month": "65", "pf": "0.95", "Picture": ""}, "geometry": {  "type": "Point",  "coordinates": [ 124.026394381643, 10.5920226732137 ]  } }
 , 
{ "type": "Feature",  "properties": {  "JAEDType": "VarLoad", "CustomerID": "1118173015", "FromBus": "124014535371059298554", "CustomerName": "CANOY -ROBERTO/MERCEDITA", "Address": "BARING -CARMEN", "CustomerType": "R", "PeriodCovered": "201902", "NumberOfDays": "31", "NumberOfHours": "744", "KWHR_month": "165", "pf": "0.95", "Picture": ""}, "geometry": {  "type": "Point",  "coordinates": [ 124.014535370827, 10.5929855406211 ]  } }
 , 
{ "type": "Feature",  "properties": {  "JAEDType": "VarLoad", "CustomerID": "1101173014", "FromBus": "124026450541062026725", "CustomerName": "ABAYON -JEROM/LUCITA A.", "Address": "FUENTE -CARMEN", "CustomerType": "R", "PeriodCovered": "201902", "NumberOfDays": "31", "NumberOfHours": "744", "KWHR_month": "64", "pf": "0.95", "Picture": ""}, "geometry": {  "type": "Point",  "coordinates": [ 124.026450536123, 10.6202672529876 ]  } }
 , 
{ "type": "Feature",  "properties": {  "JAEDType": "VarLoad", "CustomerID": "1103172972", "FromBus": "124018265711059064475", "CustomerName": "BUOT -NARCISO/LILIA", "Address": "COGON WEST -CARMEN", "CustomerType": "R", "PeriodCovered": "201902", "NumberOfDays": "31", "NumberOfHours": "744", "KWHR_month": "131", "pf": "0.95", "Picture": ""}, "geometry": {  "type": "Point",  "coordinates": [ 124.018265713442, 10.5906447543004 ]  } }
 , 
{ "type": "Feature",  "properties": {  "JAEDType": "VarLoad", "CustomerID": "1116172823", "FromBus": "124026412561061046678", "CustomerName": "BENITEZ -JOSE", "Address": "LUYANG-PIKAS -CARMEN", "CustomerType": "R", "PeriodCovered": "201902", "NumberOfDays": "31", "NumberOfHours": "744", "KWHR_month": "128", "pf": "0.95", "Picture": ""}, "geometry": {  "type": "Point",  "coordinates": [ 124.026412563621, 10.6104667788569 ]  } }
 , 
{ "type": "Feature",  "properties": {  "JAEDType": "VarLoad", "CustomerID": "1117172824", "FromBus": "124024968841060201690", "CustomerName": "BEJOC -REY S.", "Address": "STA. MARIA ST. -LUYANG -CARMEN", "CustomerType": "R", "PeriodCovered": "201902", "NumberOfDays": "31", "NumberOfHours": "744", "KWHR_month": "96", "pf": "0.95", "Picture": ""}, "geometry": {  "type": "Point",  "coordinates": [ 124.024968838307, 10.6020169025141 ]  } }
 , 
{ "type": "Feature",  "properties": {  "JAEDType": "VarLoad", "CustomerID": "1118172789", "FromBus": "124015505521059250500", "CustomerName": "BOBO -PHILIP/RIZA #02", "Address": "BARING -CARMEN", "CustomerType": "R", "PeriodCovered": "201902", "NumberOfDays": "31", "NumberOfHours": "744", "KWHR_month": "206", "pf": "0.95", "Picture": ""}, "geometry": {  "type": "Point",  "coordinates": [ 124.015505518515, 10.5925049954847 ]  } }
 , 
{ "type": "Feature",  "properties": {  "JAEDType": "VarLoad", "CustomerID": "1117172607", "FromBus": "124025895631060081302", "CustomerName": "PLAMOR -CHARY D.", "Address": "LOGARTA ST. -LUYANG -CARMEN", "CustomerType": "R", "PeriodCovered": "201902", "NumberOfDays": "31", "NumberOfHours": "744", "KWHR_month": "39", "pf": "0.95", "Picture": ""}, "geometry": {  "type": "Point",  "coordinates": [ 124.025895628826, 10.6008130163515 ]  } }
 , 
{ "type": "Feature",  "properties": {  "JAEDType": "VarLoad", "CustomerID": "1010174413", "FromBus": "124024781651063949171", "CustomerName": "COMPASADO -ROXCELL", "Address": "TALISAY-BINONGKALAN -CATMON", "CustomerType": "R", "PeriodCovered": "201902", "NumberOfDays": "31", "NumberOfHours": "744", "KWHR_month": "73", "pf": "0.95", "Picture": ""}, "geometry": {  "type": "Point",  "coordinates": [ 124.024781648668, 10.6394917063316 ]  } }
 , 
{ "type": "Feature",  "properties": {  "JAEDType": "VarLoad", "CustomerID": "1101172590", "FromBus": "124017794711059169137", "CustomerName": "DELA CRUZ -MA. CONSUELO", "Address": "COGON WEST -CARMEN", "CustomerType": "R", "PeriodCovered": "201902", "NumberOfDays": "31", "NumberOfHours": "744", "KWHR_month": "40", "pf": "0.95", "Picture": ""}, "geometry": {  "type": "Point",  "coordinates": [ 124.017794705282, 10.591691371658 ]  } }
 , 
{ "type": "Feature",  "properties": {  "JAEDType": "VarLoad", "CustomerID": "1010174407", "FromBus": "124025329561063872907", "CustomerName": "SARKELA -CHURCHILL", "Address": "TALISAY-BINONGKALAN -CATMON", "CustomerType": "R", "PeriodCovered": "201902", "NumberOfDays": "31", "NumberOfHours": "744", "KWHR_month": "861", "pf": "0.95", "Picture": ""}, "geometry": {  "type": "Point",  "coordinates": [ 124.025329558151, 10.6387290706785 ]  } }
 , 
{ "type": "Feature",  "properties": {  "JAEDType": "VarLoad", "CustomerID": "1016174373", "FromBus": "124027221041063364223", "CustomerName": "MELLOSA -PACITA CHAVEZ #02", "Address": "BINONGKALAN -CATMON", "CustomerType": "R", "PeriodCovered": "201902", "NumberOfDays": "31", "NumberOfHours": "744", "KWHR_month": "93", "pf": "0.95", "Picture": ""}, "geometry": {  "type": "Point",  "coordinates": [ 124.027221036243, 10.6336422274906 ]  } }
 , 
{ "type": "Feature",  "properties": {  "JAEDType": "VarLoad", "CustomerID": "1116172388", "FromBus": "124023751501059769695", "CustomerName": "BORBON -MARLON/CONCHITA", "Address": "LUYANG -CARMEN", "CustomerType": "R", "PeriodCovered": "201902", "NumberOfDays": "31", "NumberOfHours": "744", "KWHR_month": "73", "pf": "0.95", "Picture": ""}, "geometry": {  "type": "Point",  "coordinates": [ 124.023751499665, 10.5976969525729 ]  } }
 , 
{ "type": "Feature",  "properties": {  "JAEDType": "VarLoad", "CustomerID": "1120172354", "FromBus": "124014373151058702449", "CustomerName": "BEJOC -ANTONIO A.", "Address": "BARING -CARMEN", "CustomerType": "R", "PeriodCovered": "201902", "NumberOfDays": "31", "NumberOfHours": "744", "KWHR_month": "15", "pf": "0.95", "Picture": ""}, "geometry": {  "type": "Point",  "coordinates": [ 124.014373145332, 10.5870244877914 ]  } }
 , 
{ "type": "Feature",  "properties": {  "JAEDType": "VarLoad", "CustomerID": "1116172353", "FromBus": "124025152321059696725", "CustomerName": "LUYANG STL. #03", "Address": "LUYANG -CARMEN", "CustomerType": "S", "PeriodCovered": "201902", "NumberOfDays": "31", "NumberOfHours": "744", "KWHR_month": "1", "pf": "0.95", "Picture": ""}, "geometry": {  "type": "Point",  "coordinates": [ 124.025152322283, 10.5969672489733 ]  } }
 , 
{ "type": "Feature",  "properties": {  "JAEDType": "VarLoad", "CustomerID": "1117174165", "FromBus": "124026367881060082813", "CustomerName": "TARLE -JOSEPHINE D.", "Address": "LOGARTA ST. --LUYANG -CARMEN", "CustomerType": "R", "PeriodCovered": "201902", "NumberOfDays": "31", "NumberOfHours": "744", "KWHR_month": "34", "pf": "0.95", "Picture": ""}, "geometry": {  "type": "Point",  "coordinates": [ 124.026367884014, 10.6008281301523 ]  } }
 , 
{ "type": "Feature",  "properties": {  "JAEDType": "VarLoad", "CustomerID": "1120174063", "FromBus": "124014379361058634895", "CustomerName": "SOSOBRADO -EDGAR/DELWANE", "Address": "BARING -CARMEN", "CustomerType": "R", "PeriodCovered": "201902", "NumberOfDays": "31", "NumberOfHours": "744", "KWHR_month": "16", "pf": "0.95", "Picture": ""}, "geometry": {  "type": "Point",  "coordinates": [ 124.01437935626, 10.5863489532758 ]  } }
 , 
{ "type": "Feature",  "properties": {  "JAEDType": "VarLoad", "CustomerID": "1104173983", "FromBus": "124016308991059469605", "CustomerName": "VILLAMOR -MICHEL DAVE", "Address": "COGON WEST -CARMEN", "CustomerType": "R", "PeriodCovered": "201902", "NumberOfDays": "31", "NumberOfHours": "744", "KWHR_month": "365", "pf": "0.95", "Picture": ""}, "geometry": {  "type": "Point",  "coordinates": [ 124.016308988288, 10.5946960522363 ]  } }
 , 
{ "type": "Feature",  "properties": {  "JAEDType": "VarLoad", "CustomerID": "1120173981", "FromBus": "124013557271058635526", "CustomerName": "CURAY -RONILO A.", "Address": "BARING -CARMEN", "CustomerType": "R", "PeriodCovered": "201902", "NumberOfDays": "31", "NumberOfHours": "744", "KWHR_month": "70", "pf": "0.95", "Picture": ""}, "geometry": {  "type": "Point",  "coordinates": [ 124.013557271418, 10.5863552551518 ]  } }
 , 
{ "type": "Feature",  "properties": {  "JAEDType": "VarLoad", "CustomerID": "1120173980", "FromBus": "124013878101058836621", "CustomerName": "GINGCO -VALERIANO/NORMA #02", "Address": "BARING -CARMEN", "CustomerType": "C", "PeriodCovered": "201902", "NumberOfDays": "31", "NumberOfHours": "744", "KWHR_month": "89", "pf": "0.95", "Picture": ""}, "geometry": {  "type": "Point",  "coordinates": [ 124.013878096351, 10.5883662120274 ]  } }
 , 
{ "type": "Feature",  "properties": {  "JAEDType": "VarLoad", "CustomerID": "1103174295", "FromBus": "124016614931059124764", "CustomerName": "GOMEZ -REY", "Address": "COGON WEST -CARMEN", "CustomerType": "R", "PeriodCovered": "201902", "NumberOfDays": "31", "NumberOfHours": "744", "KWHR_month": "80", "pf": "0.95", "Picture": ""}, "geometry": {  "type": "Point",  "coordinates": [ 124.016614930313, 10.5912476351775 ]  } }
 , 
{ "type": "Feature",  "properties": {  "JAEDType": "VarLoad", "CustomerID": "1106174292", "FromBus": "124020289561059079218", "CustomerName": "BARRO -JEFFREY/MERI ANN", "Address": "COGON EAST-GOMEZ ST. -CARMEN", "CustomerType": "R", "PeriodCovered": "201902", "NumberOfDays": "31", "NumberOfHours": "744", "KWHR_month": "107", "pf": "0.95", "Picture": ""}, "geometry": {  "type": "Point",  "coordinates": [ 124.02028956211, 10.5907921759922 ]  } }
 , 
{ "type": "Feature",  "properties": {  "JAEDType": "VarLoad", "CustomerID": "1118174332", "FromBus": "124015967611059246733", "CustomerName": "PASANA -ALEJANDRO/JOSEPHINE #04", "Address": "COGON WEST -CARMEN -CEBU", "CustomerType": "C", "PeriodCovered": "201902", "NumberOfDays": "31", "NumberOfHours": "744", "KWHR_month": "2337", "pf": "0.95", "Picture": ""}, "geometry": {  "type": "Point",  "coordinates": [ 124.015967610709, 10.5924673280623 ]  } }
 , 
{ "type": "Feature",  "properties": {  "JAEDType": "VarLoad", "CustomerID": "1120173306", "FromBus": "124014460311058643459", "CustomerName": "LAO -LINA C.", "Address": "IPIL-IPIL -BARING -CARMEN", "CustomerType": "R", "PeriodCovered": "201902", "NumberOfDays": "31", "NumberOfHours": "744", "KWHR_month": "16", "pf": "0.95", "Picture": ""}, "geometry": {  "type": "Point",  "coordinates": [ 124.014460312448, 10.58643458889 ]  } }
 , 
{ "type": "Feature",  "properties": {  "JAEDType": "VarLoad", "CustomerID": "1005172878", "FromBus": "124021398651064649688", "CustomerName": "GUIROY -JIMMY", "Address": "PANALIPAN -CATMON", "CustomerType": "R", "PeriodCovered": "201902", "NumberOfDays": "31", "NumberOfHours": "744", "KWHR_month": "32", "pf": "0.95", "Picture": ""}, "geometry": {  "type": "Point",  "coordinates": [ 124.021398650913, 10.6464968762741 ]  } }
 , 
{ "type": "Feature",  "properties": {  "JAEDType": "VarLoad", "CustomerID": "1016172881", "FromBus": "124021434921063130991", "CustomerName": "COMENDADOR -JELLY-VEE", "Address": "LUKA -BINONGKALAN -CATMON", "CustomerType": "R", "PeriodCovered": "201902", "NumberOfDays": "31", "NumberOfHours": "744", "KWHR_month": "30", "pf": "0.95", "Picture": ""}, "geometry": {  "type": "Point",  "coordinates": [ 124.021434918263, 10.6313099114328 ]  } }
 , 
{ "type": "Feature",  "properties": {  "JAEDType": "VarLoad", "CustomerID": "1021173140", "FromBus": "124011989951064366074", "CustomerName": "DENSING -ALDEN/MARIBEL", "Address": "ILAYA -PANALIPAN -CATMON", "CustomerType": "R", "PeriodCovered": "201902", "NumberOfDays": "31", "NumberOfHours": "744", "KWHR_month": "45", "pf": "0.95", "Picture": ""}, "geometry": {  "type": "Point",  "coordinates": [ 124.011989949676, 10.6436607445317 ]  } }
 , 
{ "type": "Feature",  "properties": {  "JAEDType": "VarLoad", "CustomerID": "1106034042", "FromBus": "124018722251059078352", "CustomerName": "MANINGO -EDUARDO", "Address": "COGON EAST -CARMEN", "CustomerType": "R", "PeriodCovered": "201902", "NumberOfDays": "31", "NumberOfHours": "744", "KWHR_month": "30", "pf": "0.95", "Picture": ""}, "geometry": {  "type": "Point",  "coordinates": [ 124.018722246526, 10.5907835198407 ]  } }
 , 
{ "type": "Feature",  "properties": {  "JAEDType": "VarLoad", "CustomerID": "1106170583", "FromBus": "124019176791059089352", "CustomerName": "ARRIOLA -FELICIANO #05", "Address": "COGON WEST -CARMEN", "CustomerType": "C", "PeriodCovered": "201902", "NumberOfDays": "31", "NumberOfHours": "744", "KWHR_month": "103", "pf": "0.95", "Picture": ""}, "geometry": {  "type": "Point",  "coordinates": [ 124.019176785569, 10.5908935153132 ]  } }
 , 
{ "type": "Feature",  "properties": {  "JAEDType": "VarLoad", "CustomerID": "1106170584", "FromBus": "124019317401059102636", "CustomerName": "ARRIOLA -FELICIANO #06", "Address": "COGON WEST -CARMEN", "CustomerType": "C", "PeriodCovered": "201902", "NumberOfDays": "31", "NumberOfHours": "744", "KWHR_month": "335", "pf": "0.95", "Picture": ""}, "geometry": {  "type": "Point",  "coordinates": [ 124.019317403605, 10.5910263557071 ]  } }
 , 
{ "type": "Feature",  "properties": {  "JAEDType": "VarLoad", "CustomerID": "1106140618", "FromBus": "124019184821059080830", "CustomerName": "CATACUTAN -RAMIL/MERLE", "Address": "COGON EAST -CARMEN", "CustomerType": "R", "PeriodCovered": "201902", "NumberOfDays": "31", "NumberOfHours": "744", "KWHR_month": "291", "pf": "0.95", "Picture": ""}, "geometry": {  "type": "Point",  "coordinates": [ 124.019184817949, 10.5908082955954 ]  } }
 , 
{ "type": "Feature",  "properties": {  "JAEDType": "VarLoad", "CustomerID": "1107034102", "FromBus": "124019195551059078499", "CustomerName": "JAVIER -ISAAC/PRUDENCIA", "Address": "COGON EAST -CARMEN", "CustomerType": "R", "PeriodCovered": "201902", "NumberOfDays": "31", "NumberOfHours": "744", "KWHR_month": "275", "pf": "0.95", "Picture": ""}, "geometry": {  "type": "Point",  "coordinates": [ 124.019195551645, 10.5907849941951 ]  } }
 , 
{ "type": "Feature",  "properties": {  "JAEDType": "VarLoad", "CustomerID": "1107034105", "FromBus": "124019259371059090055", "CustomerName": "BUOT -PERFECTO", "Address": "COGON EAST -CARMEN", "CustomerType": "R", "PeriodCovered": "201902", "NumberOfDays": "31", "NumberOfHours": "744", "KWHR_month": "689", "pf": "0.95", "Picture": ""}, "geometry": {  "type": "Point",  "coordinates": [ 124.019259373311, 10.5909005549063 ]  } }
 , 
{ "type": "Feature",  "properties": {  "JAEDType": "VarLoad", "CustomerID": "1107034104", "FromBus": "124019292671059076055", "CustomerName": "KIAMCO -EMMANUEL/JUANITA #01 (REST HSE.)", "Address": "COGON EAST -CARMEN", "CustomerType": "R", "PeriodCovered": "201902", "NumberOfDays": "31", "NumberOfHours": "744", "KWHR_month": "25", "pf": "0.95", "Picture": ""}, "geometry": {  "type": "Point",  "coordinates": [ 124.019292673311, 10.5907605549063 ]  } }
 , 
{ "type": "Feature",  "properties": {  "JAEDType": "VarLoad", "CustomerID": "1107062306", "FromBus": "124019420971059079221", "CustomerName": "RECUERDO -ELLA #02", "Address": "COGON EAST -CARMEN", "CustomerType": "R", "PeriodCovered": "201902", "NumberOfDays": "31", "NumberOfHours": "744", "KWHR_month": "405", "pf": "0.95", "Picture": ""}, "geometry": {  "type": "Point",  "coordinates": [ 124.019420973311, 10.5907922149063 ]  } }
 , 
{ "type": "Feature",  "properties": {  "JAEDType": "VarLoad", "CustomerID": "1112131892", "FromBus": "124031345341059454263", "CustomerName": "VILLAMOR -VIRGINIO/CORAZON #03", "Address": "BANTIGUE-LUYANG -CARMEN -CEBU", "CustomerType": "R", "PeriodCovered": "201902", "NumberOfDays": "31", "NumberOfHours": "744", "KWHR_month": "59", "pf": "0.95", "Picture": ""}, "geometry": {  "type": "Point",  "coordinates": [ 124.031345336388, 10.5945426334085 ]  } }
 , 
{ "type": "Feature",  "properties": {  "JAEDType": "VarLoad", "CustomerID": "1010085595", "FromBus": "124026693591062872645", "CustomerName": "MANANGQUIL -ARNOLD", "Address": "BINONGKALAN -CATMON", "CustomerType": "R", "PeriodCovered": "201902", "NumberOfDays": "31", "NumberOfHours": "744", "KWHR_month": "15", "pf": "0.95", "Picture": ""}, "geometry": {  "type": "Point",  "coordinates": [ 124.026693585245, 10.6287264519555 ]  } }
 , 
{ "type": "Feature",  "properties": {  "JAEDType": "VarLoad", "CustomerID": "1010032556", "FromBus": "124026698161062872174", "CustomerName": "MIOLE -CARMELITA", "Address": "BINONGKALAN -CATMON", "CustomerType": "R", "PeriodCovered": "201902", "NumberOfDays": "31", "NumberOfHours": "744", "KWHR_month": "18", "pf": "0.95", "Picture": ""}, "geometry": {  "type": "Point",  "coordinates": [ 124.026698157558, 10.6287217433428 ]  } }
 , 
{ "type": "Feature",  "properties": {  "JAEDType": "VarLoad", "CustomerID": "1112035406", "FromBus": "124027065371059176786", "CustomerName": "CABAÑADA -AQUILES", "Address": "MALBAGO -CARMEN", "CustomerType": "R", "PeriodCovered": "201902", "NumberOfDays": "31", "NumberOfHours": "744", "KWHR_month": "88", "pf": "0.95", "Picture": ""}, "geometry": {  "type": "Point",  "coordinates": [ 124.027065373311, 10.5917678649063 ]  } }
 , 
{ "type": "Feature",  "properties": {  "JAEDType": "VarLoad", "CustomerID": "1107033709", "FromBus": "124019473671059127167", "CustomerName": "QUINGCO -TEODORO/ROSALINDA", "Address": "COGON EAST -CARMEN", "CustomerType": "R", "PeriodCovered": "201902", "NumberOfDays": "31", "NumberOfHours": "744", "KWHR_month": "50", "pf": "0.95", "Picture": ""}, "geometry": {  "type": "Point",  "coordinates": [ 124.019473673311, 10.5912716749063 ]  } }
 , 
{ "type": "Feature",  "properties": {  "JAEDType": "VarLoad", "CustomerID": "1021141916", "FromBus": "124015810531064601040", "CustomerName": "SUDAY -MARICEL ARENILLA", "Address": "ILAYA -PANALIPAN -CATMON", "CustomerType": "R", "PeriodCovered": "201902", "NumberOfDays": "31", "NumberOfHours": "744", "KWHR_month": "7", "pf": "0.95", "Picture": ""}, "geometry": {  "type": "Point",  "coordinates": [ 124.015810532496, 10.646010403989 ]  } }
 , 
{ "type": "Feature",  "properties": {  "JAEDType": "VarLoad", "CustomerID": "1103091823", "FromBus": "124016345971059160555", "CustomerName": "SANICO -SAMUEL NIMROD", "Address": "BARING -CARMEN", "CustomerType": "R", "PeriodCovered": "201902", "NumberOfDays": "31", "NumberOfHours": "744", "KWHR_month": "69", "pf": "0.95", "Picture": ""}, "geometry": {  "type": "Point",  "coordinates": [ 124.016345973311, 10.5916055549063 ]  } }
 , 
{ "type": "Feature",  "properties": {  "JAEDType": "VarLoad", "CustomerID": "1104033530", "FromBus": "124015319831059458590", "CustomerName": "GUABES -NARCISA", "Address": "COGON WEST -CARMEN", "CustomerType": "C", "PeriodCovered": "201902", "NumberOfDays": "31", "NumberOfHours": "744", "KWHR_month": "1279", "pf": "0.95", "Picture": ""}, "geometry": {  "type": "Point",  "coordinates": [ 124.015319832935, 10.5945858985542 ]  } }
 , 
{ "type": "Feature",  "properties": {  "JAEDType": "VarLoad", "CustomerID": "1106091104", "FromBus": "124018750021059125423", "CustomerName": "DINAMPO -ANA MARYBETH - STORE #01", "Address": "COGON EAST -PUB.MRKT. - CARMEN", "CustomerType": "C", "PeriodCovered": "201902", "NumberOfDays": "31", "NumberOfHours": "744", "KWHR_month": "11", "pf": "0.95", "Picture": ""}, "geometry": {  "type": "Point",  "coordinates": [ 124.018750022082, 10.5912542322314 ]  } }
 , 
{ "type": "Feature",  "properties": {  "JAEDType": "VarLoad", "CustomerID": "1102052206", "FromBus": "124026525011060153905", "CustomerName": "TUMARONG -SAMUEL/ISABEL", "Address": "LUYANG -CARMEN", "CustomerType": "R", "PeriodCovered": "201902", "NumberOfDays": "31", "NumberOfHours": "744", "KWHR_month": "1", "pf": "0.95", "Picture": ""}, "geometry": {  "type": "Point",  "coordinates": [ 124.02652501499, 10.6015390547845 ]  } }
 , 
{ "type": "Feature",  "properties": {  "JAEDType": "VarLoad", "CustomerID": "1102080769", "FromBus": "124026522271060149945", "CustomerName": "JAYSON -JOSELITO/LOPE", "Address": "LUYANG -CARMEN", "CustomerType": "R", "PeriodCovered": "201902", "NumberOfDays": "31", "NumberOfHours": "744", "KWHR_month": "630", "pf": "0.95", "Picture": ""}, "geometry": {  "type": "Point",  "coordinates": [ 124.026522273311, 10.601499454906 ]  } }
 , 
{ "type": "Feature",  "properties": {  "JAEDType": "VarLoad", "CustomerID": "1102133622", "FromBus": "124026565851060146891", "CustomerName": "SABAYTON -CAMILO/SATURNINA #02", "Address": "LUYANG -CARMEN", "CustomerType": "R", "PeriodCovered": "201902", "NumberOfDays": "31", "NumberOfHours": "744", "KWHR_month": "96", "pf": "0.95", "Picture": ""}, "geometry": {  "type": "Point",  "coordinates": [ 124.026565845212, 10.6014689141343 ]  } }
 , 
{ "type": "Feature",  "properties": {  "JAEDType": "VarLoad", "CustomerID": "1102033029", "FromBus": "124026611071060144218", "CustomerName": "SABAYTON -CAMILO/SATURNINA", "Address": "LUYANG -CARMEN", "CustomerType": "C", "PeriodCovered": "201902", "NumberOfDays": "31", "NumberOfHours": "744", "KWHR_month": "492", "pf": "0.95", "Picture": ""}, "geometry": {  "type": "Point",  "coordinates": [ 124.026611073311, 10.601442184906 ]  } }
 , 
{ "type": "Feature",  "properties": {  "JAEDType": "VarLoad", "CustomerID": "1102135581", "FromBus": "124026708831060146601", "CustomerName": "FLORES -JESTONI JERRY REMEDIO", "Address": "LUYANG -CARMEN", "CustomerType": "R", "PeriodCovered": "201902", "NumberOfDays": "31", "NumberOfHours": "744", "KWHR_month": "69", "pf": "0.95", "Picture": ""}, "geometry": {  "type": "Point",  "coordinates": [ 124.026708828942, 10.6014660138145 ]  } }
 , 
{ "type": "Feature",  "properties": {  "JAEDType": "VarLoad", "CustomerID": "1005142860", "FromBus": "124022862671065177388", "CustomerName": "BUTAYA -EFEFANIO/LOURDES", "Address": "PANALIPAN -CATMON", "CustomerType": "R", "PeriodCovered": "201902", "NumberOfDays": "31", "NumberOfHours": "744", "KWHR_month": "82", "pf": "0.95", "Picture": ""}, "geometry": {  "type": "Point",  "coordinates": [ 124.022862673311, 10.6517738849044 ]  } }
 , 
{ "type": "Feature",  "properties": {  "JAEDType": "VarLoad", "CustomerID": "1005141554", "FromBus": "124023172671065181888", "CustomerName": "BUGTONG -BRAULIO/MYRNA", "Address": "PANALIPAN -CATMON", "CustomerType": "R", "PeriodCovered": "201902", "NumberOfDays": "31", "NumberOfHours": "744", "KWHR_month": "107", "pf": "0.95", "Picture": ""}, "geometry": {  "type": "Point",  "coordinates": [ 124.023172673311, 10.6518188849044 ]  } }
 , 
{ "type": "Feature",  "properties": {  "JAEDType": "VarLoad", "CustomerID": "1005137308", "FromBus": "124023747671064984221", "CustomerName": "DUMABOK -GUILLERMO/MARILYN", "Address": "PANALIPAN -CATMON", "CustomerType": "R", "PeriodCovered": "201902", "NumberOfDays": "31", "NumberOfHours": "744", "KWHR_month": "31", "pf": "0.95", "Picture": ""}, "geometry": {  "type": "Point",  "coordinates": [ 124.023747673311, 10.6498422149045 ]  } }
 , 
{ "type": "Feature",  "properties": {  "JAEDType": "VarLoad", "CustomerID": "1005138825", "FromBus": "124023682671065005388", "CustomerName": "PERALES -JOEL/NIMFA", "Address": "PANALIPAN -CATMON", "CustomerType": "R", "PeriodCovered": "201902", "NumberOfDays": "31", "NumberOfHours": "744", "KWHR_month": "1", "pf": "0.95", "Picture": ""}, "geometry": {  "type": "Point",  "coordinates": [ 124.023682673311, 10.6500538849045 ]  } }
 , 
{ "type": "Feature",  "properties": {  "JAEDType": "VarLoad", "CustomerID": "1005090859", "FromBus": "124023684371065011221", "CustomerName": "OMANDAC -ERWIN/GLYNA", "Address": "PANALIPAN -CATMON", "CustomerType": "R", "PeriodCovered": "201902", "NumberOfDays": "31", "NumberOfHours": "744", "KWHR_month": "47", "pf": "0.95", "Picture": ""}, "geometry": {  "type": "Point",  "coordinates": [ 124.023684373311, 10.6501122149045 ]  } }
 , 
{ "type": "Feature",  "properties": {  "JAEDType": "VarLoad", "CustomerID": "1005080089", "FromBus": "124023655971065015888", "CustomerName": "ARENZA -DOMINICO/MARISA", "Address": "PANALIPAN -CATMON", "CustomerType": "R", "PeriodCovered": "201902", "NumberOfDays": "31", "NumberOfHours": "744", "KWHR_month": "32", "pf": "0.95", "Picture": ""}, "geometry": {  "type": "Point",  "coordinates": [ 124.023655973311, 10.6501588849045 ]  } }
 , 
{ "type": "Feature",  "properties": {  "JAEDType": "VarLoad", "CustomerID": "1005148076", "FromBus": "124023689371065015888", "CustomerName": "PERALES -NOEL/ROSALIN", "Address": "PANALIPAN -CATMON", "CustomerType": "R", "PeriodCovered": "201902", "NumberOfDays": "31", "NumberOfHours": "744", "KWHR_month": "79", "pf": "0.95", "Picture": ""}, "geometry": {  "type": "Point",  "coordinates": [ 124.023689373311, 10.6501588849045 ]  } }
 , 
{ "type": "Feature",  "properties": {  "JAEDType": "VarLoad", "CustomerID": "1005074989", "FromBus": "124023694371065014721", "CustomerName": "PONTIJON -JOHNNY/ALICIA", "Address": "PANALIPAN -CATMON", "CustomerType": "R", "PeriodCovered": "201902", "NumberOfDays": "31", "NumberOfHours": "744", "KWHR_month": "29", "pf": "0.95", "Picture": ""}, "geometry": {  "type": "Point",  "coordinates": [ 124.023694373311, 10.6501472149045 ]  } }
 , 
{ "type": "Feature",  "properties": {  "JAEDType": "VarLoad", "CustomerID": "1005032408", "FromBus": "124023724371065012721", "CustomerName": "RUELO -NORBERTO", "Address": "PANALIPAN -CATMON", "CustomerType": "R", "PeriodCovered": "201902", "NumberOfDays": "31", "NumberOfHours": "744", "KWHR_month": "15", "pf": "0.95", "Picture": ""}, "geometry": {  "type": "Point",  "coordinates": [ 124.023724373311, 10.6501272149045 ]  } }
 , 
{ "type": "Feature",  "properties": {  "JAEDType": "VarLoad", "CustomerID": "1005051690", "FromBus": "124023745971065012555", "CustomerName": "LUARDO -PEDRO/MARCELINA", "Address": "PANALIPAN -CATMON", "CustomerType": "R", "PeriodCovered": "201902", "NumberOfDays": "31", "NumberOfHours": "744", "KWHR_month": "1", "pf": "0.95", "Picture": ""}, "geometry": {  "type": "Point",  "coordinates": [ 124.023745973311, 10.6501255549045 ]  } }
 , 
{ "type": "Feature",  "properties": {  "JAEDType": "VarLoad", "CustomerID": "1005032371", "FromBus": "124023792671065009555", "CustomerName": "ROILO -LEANDRINO #02", "Address": "PANALIPAN -CATMON", "CustomerType": "R", "PeriodCovered": "201902", "NumberOfDays": "31", "NumberOfHours": "744", "KWHR_month": "53", "pf": "0.95", "Picture": ""}, "geometry": {  "type": "Point",  "coordinates": [ 124.023792673311, 10.6500955549045 ]  } }
 , 
{ "type": "Feature",  "properties": {  "JAEDType": "VarLoad", "CustomerID": "1005133330", "FromBus": "124023910971065006388", "CustomerName": "FATIMA & VRMN ENGG. SERVICES", "Address": "PANALIPAN -CATMON -CEBU", "CustomerType": "C", "PeriodCovered": "201902", "NumberOfDays": "31", "NumberOfHours": "744", "KWHR_month": "59", "pf": "0.95", "Picture": ""}, "geometry": {  "type": "Point",  "coordinates": [ 124.023910973311, 10.6500638849045 ]  } }
 , 
{ "type": "Feature",  "properties": {  "JAEDType": "VarLoad", "CustomerID": "1005076806", "FromBus": "124023952671065013221", "CustomerName": "ARENILLA -LIGAYA", "Address": "PANALIPAN -CATMON", "CustomerType": "R", "PeriodCovered": "201902", "NumberOfDays": "31", "NumberOfHours": "744", "KWHR_month": "13", "pf": "0.95", "Picture": ""}, "geometry": {  "type": "Point",  "coordinates": [ 124.023952673311, 10.6501322149045 ]  } }
 , 
{ "type": "Feature",  "properties": {  "JAEDType": "VarLoad", "CustomerID": "1005032370", "FromBus": "124023799371065016221", "CustomerName": "ARRABIS -ROMEO/MARCELINA", "Address": "PANALIPAN -CATMON", "CustomerType": "R", "PeriodCovered": "201902", "NumberOfDays": "31", "NumberOfHours": "744", "KWHR_month": "101", "pf": "0.95", "Picture": ""}, "geometry": {  "type": "Point",  "coordinates": [ 124.023799373311, 10.6501622149045 ]  } }
 , 
{ "type": "Feature",  "properties": {  "JAEDType": "VarLoad", "CustomerID": "1005032362", "FromBus": "124023605971065027221", "CustomerName": "MONTAÑO -NOEL/SARAH", "Address": "PANALIPAN -CATMON", "CustomerType": "R", "PeriodCovered": "201902", "NumberOfDays": "31", "NumberOfHours": "744", "KWHR_month": "64", "pf": "0.95", "Picture": ""}, "geometry": {  "type": "Point",  "coordinates": [ 124.023605973311, 10.6502722149045 ]  } }
 , 
{ "type": "Feature",  "properties": {  "JAEDType": "VarLoad", "CustomerID": "1005083689", "FromBus": "124023652671065026721", "CustomerName": "ARENZA -JOSE", "Address": "PANALIPAN -CATMON", "CustomerType": "R", "PeriodCovered": "201902", "NumberOfDays": "31", "NumberOfHours": "744", "KWHR_month": "21", "pf": "0.95", "Picture": ""}, "geometry": {  "type": "Point",  "coordinates": [ 124.023652673311, 10.6502672149045 ]  } }
 , 
{ "type": "Feature",  "properties": {  "JAEDType": "VarLoad", "CustomerID": "1005032363", "FromBus": "124023654371065028388", "CustomerName": "JUBAN -EDWIN", "Address": "PANALIPAN -CATMON", "CustomerType": "R", "PeriodCovered": "201902", "NumberOfDays": "31", "NumberOfHours": "744", "KWHR_month": "18", "pf": "0.95", "Picture": ""}, "geometry": {  "type": "Point",  "coordinates": [ 124.023654373311, 10.6502838849045 ]  } }
 , 
{ "type": "Feature",  "properties": {  "JAEDType": "VarLoad", "CustomerID": "1005032365", "FromBus": "124023694371065030055", "CustomerName": "MOLLENA -MONINA", "Address": "PANALIPAN -CATMON", "CustomerType": "R", "PeriodCovered": "201902", "NumberOfDays": "31", "NumberOfHours": "744", "KWHR_month": "1", "pf": "0.95", "Picture": ""}, "geometry": {  "type": "Point",  "coordinates": [ 124.023694373311, 10.6503005549045 ]  } }
 , 
{ "type": "Feature",  "properties": {  "JAEDType": "VarLoad", "CustomerID": "1005079880", "FromBus": "124023849371065030555", "CustomerName": "ROJO -EULOGIO/NANETH", "Address": "PANALIPAN -CATMON", "CustomerType": "R", "PeriodCovered": "201902", "NumberOfDays": "31", "NumberOfHours": "744", "KWHR_month": "86", "pf": "0.95", "Picture": ""}, "geometry": {  "type": "Point",  "coordinates": [ 124.023849373311, 10.6503055549045 ]  } }
 , 
{ "type": "Feature",  "properties": {  "JAEDType": "VarLoad", "CustomerID": "1005099780", "FromBus": "124023864371065026555", "CustomerName": "BEJOC -EDGAR/ROWENA", "Address": "PANALIPAN -CATMON", "CustomerType": "R", "PeriodCovered": "201902", "NumberOfDays": "31", "NumberOfHours": "744", "KWHR_month": "36", "pf": "0.95", "Picture": ""}, "geometry": {  "type": "Point",  "coordinates": [ 124.023864373311, 10.6502655549045 ]  } }
 , 
{ "type": "Feature",  "properties": {  "JAEDType": "VarLoad", "CustomerID": "1005145260", "FromBus": "124023842671065028055", "CustomerName": "JUMAO-AS -ELVIE", "Address": "PANALIPAN -CATMON", "CustomerType": "R", "PeriodCovered": "201902", "NumberOfDays": "31", "NumberOfHours": "744", "KWHR_month": "165", "pf": "0.95", "Picture": ""}, "geometry": {  "type": "Point",  "coordinates": [ 124.023842673311, 10.6502805549045 ]  } }
 , 
{ "type": "Feature",  "properties": {  "JAEDType": "VarLoad", "CustomerID": "1005136495", "FromBus": "124022668801065234570", "CustomerName": "MACKAY -DIOSCORA #01", "Address": "PANALIPAN -CATMON", "CustomerType": "R", "PeriodCovered": "201902", "NumberOfDays": "31", "NumberOfHours": "744", "KWHR_month": "620", "pf": "0.95", "Picture": ""}, "geometry": {  "type": "Point",  "coordinates": [ 124.022668803676, 10.6523456977075 ]  } }
 , 
{ "type": "Feature",  "properties": {  "JAEDType": "VarLoad", "CustomerID": "1005092534", "FromBus": "124024172671065002888", "CustomerName": "MOLLE -LEOVEL/ALLEN", "Address": "PANALIPAN -CATMON", "CustomerType": "R", "PeriodCovered": "201902", "NumberOfDays": "31", "NumberOfHours": "744", "KWHR_month": "78", "pf": "0.95", "Picture": ""}, "geometry": {  "type": "Point",  "coordinates": [ 124.024172673311, 10.6500288849045 ]  } }
 , 
{ "type": "Feature",  "properties": {  "JAEDType": "VarLoad", "CustomerID": "1005084421", "FromBus": "124023444371065041055", "CustomerName": "PORIO -ELIAS", "Address": "PANALIPAN -CATMON", "CustomerType": "R", "PeriodCovered": "201902", "NumberOfDays": "31", "NumberOfHours": "744", "KWHR_month": "47", "pf": "0.95", "Picture": ""}, "geometry": {  "type": "Point",  "coordinates": [ 124.023444373311, 10.6504105549045 ]  } }
 , 
{ "type": "Feature",  "properties": {  "JAEDType": "VarLoad", "CustomerID": "1118033311", "FromBus": "124015339471059297095", "CustomerName": "VILLAMOR -DELIO", "Address": "COGON WEST -CARMEN", "CustomerType": "C", "PeriodCovered": "201902", "NumberOfDays": "31", "NumberOfHours": "744", "KWHR_month": "47", "pf": "0.95", "Picture": ""}, "geometry": {  "type": "Point",  "coordinates": [ 124.015339473311, 10.5929709549063 ]  } }
 , 
{ "type": "Feature",  "properties": {  "JAEDType": "VarLoad", "CustomerID": "1101032635", "FromBus": "124027118711061963850", "CustomerName": "TSE -NILDA #03 (BEACH HSE.)", "Address": "FUENTE -CARMEN", "CustomerType": "C", "PeriodCovered": "201902", "NumberOfDays": "31", "NumberOfHours": "744", "KWHR_month": "1", "pf": "0.95", "Picture": ""}, "geometry": {  "type": "Point",  "coordinates": [ 124.027118706712, 10.6196385023714 ]  } }
 , 
{ "type": "Feature",  "properties": {  "JAEDType": "VarLoad", "CustomerID": "1150035581", "FromBus": "124018582901058887031", "CustomerName": "CSCST-CFT CARMEN CAMPUS", "Address": "POBLACION -CARMEN", "CustomerType": "P", "PeriodCovered": "201902", "NumberOfDays": "31", "NumberOfHours": "744", "KWHR_month": "1613", "pf": "0.95", "Picture": ""}, "geometry": {  "type": "Point",  "coordinates": [ 124.018582900114, 10.5888703061534 ]  } }
 , 
{ "type": "Feature",  "properties": {  "JAEDType": "VarLoad", "CustomerID": "1103148635", "FromBus": "124018112591059072153", "CustomerName": "SIKAP-COMM. RURAL BANK OF CATMON INC.", "Address": "NATL. ROAD-COGON WEST -CARMEN", "CustomerType": "C", "PeriodCovered": "201902", "NumberOfDays": "31", "NumberOfHours": "744", "KWHR_month": "2036", "pf": "0.95", "Picture": ""}, "geometry": {  "type": "Point",  "coordinates": [ 124.018112589391, 10.5907215273791 ]  } }
 , 
{ "type": "Feature",  "properties": {  "JAEDType": "VarLoad", "CustomerID": "1103059628", "FromBus": "124018304801059236471", "CustomerName": "AREA PRES.-CJCLDS PHILS. -INC.", "Address": "COGON WEST -CARMEN", "CustomerType": "P", "PeriodCovered": "201902", "NumberOfDays": "31", "NumberOfHours": "744", "KWHR_month": "393", "pf": "0.95", "Picture": ""}, "geometry": {  "type": "Point",  "coordinates": [ 124.018304800024, 10.5923647123366 ]  } }
 , 
{ "type": "Feature",  "properties": {  "JAEDType": "VarLoad", "CustomerID": "1116132522", "FromBus": "124022827931060395759", "CustomerName": "PTT GAS STN. / V.Q. PUA", "Address": "LUYANG -CARMEN", "CustomerType": "C", "PeriodCovered": "201902", "NumberOfDays": "31", "NumberOfHours": "744", "KWHR_month": "1", "pf": "0.95", "Picture": ""}, "geometry": {  "type": "Point",  "coordinates": [ 124.022827925092, 10.6039575887935 ]  } }
 , 
{ "type": "Feature",  "properties": {  "JAEDType": "VarLoad", "CustomerID": "1101082859", "FromBus": "124027119461061382579", "CustomerName": "MIRANDA -MA. MERCEDES RH", "Address": "FUENTE -CARMEN", "CustomerType": "R", "PeriodCovered": "201902", "NumberOfDays": "31", "NumberOfHours": "744", "KWHR_month": "74", "pf": "0.95", "Picture": ""}, "geometry": {  "type": "Point",  "coordinates": [ 124.027119459819, 10.6138257896018 ]  } }
 , 
{ "type": "Feature",  "properties": {  "JAEDType": "VarLoad", "CustomerID": "1101052213", "FromBus": "124027119371061382555", "CustomerName": "OUANO -OLGA #01 - REST HSE.", "Address": "FUENTE -CARMEN", "CustomerType": "R", "PeriodCovered": "201902", "NumberOfDays": "31", "NumberOfHours": "744", "KWHR_month": "128", "pf": "0.95", "Picture": ""}, "geometry": {  "type": "Point",  "coordinates": [ 124.027119373311, 10.6138255549056 ]  } }
 , 
{ "type": "Feature",  "properties": {  "JAEDType": "VarLoad", "CustomerID": "1101067990", "FromBus": "124026889371062088388", "CustomerName": "INTO -VIVIAN", "Address": "FUENTE -CARMEN", "CustomerType": "R", "PeriodCovered": "201902", "NumberOfDays": "31", "NumberOfHours": "744", "KWHR_month": "1320", "pf": "0.95", "Picture": ""}, "geometry": {  "type": "Point",  "coordinates": [ 124.026889373311, 10.6208838849054 ]  } }
 , 
{ "type": "Feature",  "properties": {  "JAEDType": "VarLoad", "CustomerID": "1110145162", "FromBus": "124016576801059003028", "CustomerName": "MENDOZA -MANEL JR/DAISY", "Address": "COGON WEST -CARMEN", "CustomerType": "R", "PeriodCovered": "201902", "NumberOfDays": "31", "NumberOfHours": "744", "KWHR_month": "102", "pf": "0.95", "Picture": ""}, "geometry": {  "type": "Point",  "coordinates": [ 124.016576801838, 10.5900302783948 ]  } }
 , 
{ "type": "Feature",  "properties": {  "JAEDType": "VarLoad", "CustomerID": "1103068724", "FromBus": "124016461891058999411", "CustomerName": "BUOT -MARILYN #03", "Address": "COGON WEST -CARMEN", "CustomerType": "R", "PeriodCovered": "201902", "NumberOfDays": "31", "NumberOfHours": "744", "KWHR_month": "1", "pf": "0.95", "Picture": ""}, "geometry": {  "type": "Point",  "coordinates": [ 124.016461885064, 10.589994114529 ]  } }
 , 
{ "type": "Feature",  "properties": {  "JAEDType": "VarLoad", "CustomerID": "1103135798", "FromBus": "124016505901059006058", "CustomerName": "ARMODIA -MAURO/LINDA #01", "Address": "COGON WEST-ST. MARTIN -CARMEN", "CustomerType": "R", "PeriodCovered": "201902", "NumberOfDays": "31", "NumberOfHours": "744", "KWHR_month": "213", "pf": "0.95", "Picture": ""}, "geometry": {  "type": "Point",  "coordinates": [ 124.016505898288, 10.5900605811516 ]  } }
 , 
{ "type": "Feature",  "properties": {  "JAEDType": "VarLoad", "CustomerID": "1103142881", "FromBus": "124016434571059004550", "CustomerName": "MATA -LAWRENCE/CHERRBELLE", "Address": "COGON WEST-ST. MARTIN -CARMEN", "CustomerType": "R", "PeriodCovered": "201902", "NumberOfDays": "31", "NumberOfHours": "744", "KWHR_month": "11", "pf": "0.95", "Picture": ""}, "geometry": {  "type": "Point",  "coordinates": [ 124.016434566497, 10.5900454970565 ]  } }
 , 
{ "type": "Feature",  "properties": {  "JAEDType": "VarLoad", "CustomerID": "1120082389", "FromBus": "124016629461059006664", "CustomerName": "ROBLE -MARIO/JULIA #02", "Address": "COGON WEST -CARMEN", "CustomerType": "R", "PeriodCovered": "201902", "NumberOfDays": "31", "NumberOfHours": "744", "KWHR_month": "59", "pf": "0.95", "Picture": ""}, "geometry": {  "type": "Point",  "coordinates": [ 124.016629456642, 10.590066643115 ]  } }
 , 
{ "type": "Feature",  "properties": {  "JAEDType": "VarLoad", "CustomerID": "1103033272", "FromBus": "124016543281059011865", "CustomerName": "ARMODIA -ANECITO/EUGENIA", "Address": "COGON WEST -CARMEN", "CustomerType": "R", "PeriodCovered": "201902", "NumberOfDays": "31", "NumberOfHours": "744", "KWHR_month": "128", "pf": "0.95", "Picture": ""}, "geometry": {  "type": "Point",  "coordinates": [ 124.016543278853, 10.5901186529535 ]  } }
 , 
{ "type": "Feature",  "properties": {  "JAEDType": "VarLoad", "CustomerID": "1120092731", "FromBus": "124016261771059008514", "CustomerName": "VERGINIZA -OSCAR JR./ETHEL", "Address": "COGON WEST -CARMEN", "CustomerType": "R", "PeriodCovered": "201902", "NumberOfDays": "31", "NumberOfHours": "744", "KWHR_month": "285", "pf": "0.95", "Picture": ""}, "geometry": {  "type": "Point",  "coordinates": [ 124.016261774518, 10.5900851352072 ]  } }
 , 
{ "type": "Feature",  "properties": {  "JAEDType": "VarLoad", "CustomerID": "1120060994", "FromBus": "124016211321059012568", "CustomerName": "COLONIA -EUSEBIO/ROSALINA", "Address": "COGON WEST -CARMEN", "CustomerType": "R", "PeriodCovered": "201902", "NumberOfDays": "31", "NumberOfHours": "744", "KWHR_month": "278", "pf": "0.95", "Picture": ""}, "geometry": {  "type": "Point",  "coordinates": [ 124.016211319009, 10.5901256785043 ]  } }
 , 
{ "type": "Feature",  "properties": {  "JAEDType": "VarLoad", "CustomerID": "1103091957", "FromBus": "124016159131058974985", "CustomerName": "TARIAO -AUREA MANULAT", "Address": "COGON WEST -CARMEN", "CustomerType": "R", "PeriodCovered": "201902", "NumberOfDays": "31", "NumberOfHours": "744", "KWHR_month": "5", "pf": "0.95", "Picture": ""}, "geometry": {  "type": "Point",  "coordinates": [ 124.016159130515, 10.5897498537997 ]  } }
 , 
{ "type": "Feature",  "properties": {  "JAEDType": "VarLoad", "CustomerID": "1120034487", "FromBus": "124016212401058977693", "CustomerName": "LUCEÑO -JOSE #02", "Address": "KANGYAN -CARMEN", "CustomerType": "C", "PeriodCovered": "201902", "NumberOfDays": "31", "NumberOfHours": "744", "KWHR_month": "185", "pf": "0.95", "Picture": ""}, "geometry": {  "type": "Point",  "coordinates": [ 124.016212397536, 10.5897769315546 ]  } }
 , 
{ "type": "Feature",  "properties": {  "JAEDType": "VarLoad", "CustomerID": "1103059374", "FromBus": "124016506471059106202", "CustomerName": "CAMBAYA -ELIJA #02", "Address": "COGON WEST -CARMEN", "CustomerType": "R", "PeriodCovered": "201902", "NumberOfDays": "31", "NumberOfHours": "744", "KWHR_month": "97", "pf": "0.95", "Picture": ""}, "geometry": {  "type": "Point",  "coordinates": [ 124.016506467095, 10.5910620205784 ]  } }
 , 
{ "type": "Feature",  "properties": {  "JAEDType": "VarLoad", "CustomerID": "1103033237", "FromBus": "124016619801059107678", "CustomerName": "GOMEZ -ANTONIA", "Address": "COGON WEST -CARMEN", "CustomerType": "R", "PeriodCovered": "201902", "NumberOfDays": "31", "NumberOfHours": "744", "KWHR_month": "85", "pf": "0.95", "Picture": ""}, "geometry": {  "type": "Point",  "coordinates": [ 124.016619799074, 10.5910767835813 ]  } }
 , 
{ "type": "Feature",  "properties": {  "JAEDType": "VarLoad", "CustomerID": "1103132767", "FromBus": "124016534321059115270", "CustomerName": "JUSAY -DAN/EMILY", "Address": "ST. MARTIN-COGON WEST -CARMEN", "CustomerType": "R", "PeriodCovered": "201902", "NumberOfDays": "31", "NumberOfHours": "744", "KWHR_month": "1", "pf": "0.95", "Picture": ""}, "geometry": {  "type": "Point",  "coordinates": [ 124.016534322504, 10.5911527022772 ]  } }
 , 
{ "type": "Feature",  "properties": {  "JAEDType": "VarLoad", "CustomerID": "1103091670", "FromBus": "124017201321059092515", "CustomerName": "PULVERA -DANILO/SARAH", "Address": "COGON WEST -CARMEN", "CustomerType": "R", "PeriodCovered": "201902", "NumberOfDays": "31", "NumberOfHours": "744", "KWHR_month": "273", "pf": "0.95", "Picture": ""}, "geometry": {  "type": "Point",  "coordinates": [ 124.017201318127, 10.5909251471278 ]  } }
 , 
{ "type": "Feature",  "properties": {  "JAEDType": "VarLoad", "CustomerID": "1103033249", "FromBus": "124017172871059094930", "CustomerName": "BASAKA -BEBIE #01", "Address": "COGON WEST -CARMEN", "CustomerType": "R", "PeriodCovered": "201902", "NumberOfDays": "31", "NumberOfHours": "744", "KWHR_month": "101", "pf": "0.95", "Picture": ""}, "geometry": {  "type": "Point",  "coordinates": [ 124.01717286684, 10.59094930379 ]  } }
 , 
{ "type": "Feature",  "properties": {  "JAEDType": "VarLoad", "CustomerID": "1103033248", "FromBus": "124017141501059091565", "CustomerName": "BASAKA -BEBIE #02", "Address": "COGON WEST -CARMEN", "CustomerType": "C", "PeriodCovered": "201902", "NumberOfDays": "31", "NumberOfHours": "744", "KWHR_month": "309", "pf": "0.95", "Picture": ""}, "geometry": {  "type": "Point",  "coordinates": [ 124.017141500676, 10.5909156506881 ]  } }
 , 
{ "type": "Feature",  "properties": {  "JAEDType": "VarLoad", "CustomerID": "1103033244", "FromBus": "124017082721059091381", "CustomerName": "PULVERA -LUCENA #01", "Address": "COGON WEST-ST. MARTIN -CARMEN", "CustomerType": "R", "PeriodCovered": "201902", "NumberOfDays": "31", "NumberOfHours": "744", "KWHR_month": "179", "pf": "0.95", "Picture": ""}, "geometry": {  "type": "Point",  "coordinates": [ 124.017082720336, 10.5909138136578 ]  } }
 , 
{ "type": "Feature",  "properties": {  "JAEDType": "VarLoad", "CustomerID": "1103033277", "FromBus": "124016854371059146611", "CustomerName": "MONTEGRANDE -MICHAEL/LOURDES #02", "Address": "COGON WEST -CARMEN", "CustomerType": "R", "PeriodCovered": "201902", "NumberOfDays": "31", "NumberOfHours": "744", "KWHR_month": "879", "pf": "0.95", "Picture": ""}, "geometry": {  "type": "Point",  "coordinates": [ 124.016854373311, 10.5914661149063 ]  } }
 , 
{ "type": "Feature",  "properties": {  "JAEDType": "VarLoad", "CustomerID": "1103033276", "FromBus": "124016860601059145144", "CustomerName": "PONO -EUFRACIO/TERESITA", "Address": "COGON WEST -CARMEN", "CustomerType": "R", "PeriodCovered": "201902", "NumberOfDays": "31", "NumberOfHours": "744", "KWHR_month": "3", "pf": "0.95", "Picture": ""}, "geometry": {  "type": "Point",  "coordinates": [ 124.01686059707, 10.5914514376429 ]  } }
 , 
{ "type": "Feature",  "properties": {  "JAEDType": "VarLoad", "CustomerID": "1103033278", "FromBus": "124016936271059142516", "CustomerName": "SANICO -FRANCISCO/GLICERIA", "Address": "COGON WEST -CARMEN", "CustomerType": "R", "PeriodCovered": "201902", "NumberOfDays": "31", "NumberOfHours": "744", "KWHR_month": "198", "pf": "0.95", "Picture": ""}, "geometry": {  "type": "Point",  "coordinates": [ 124.016936273311, 10.5914251649063 ]  } }
 , 
{ "type": "Feature",  "properties": {  "JAEDType": "VarLoad", "CustomerID": "1103033234", "FromBus": "124017182071059138718", "CustomerName": "LANE -LINDA", "Address": "COGON WEST -CARMEN", "CustomerType": "R", "PeriodCovered": "201902", "NumberOfDays": "31", "NumberOfHours": "744", "KWHR_month": "356", "pf": "0.95", "Picture": ""}, "geometry": {  "type": "Point",  "coordinates": [ 124.017182073311, 10.5913871849063 ]  } }
 , 
{ "type": "Feature",  "properties": {  "JAEDType": "VarLoad", "CustomerID": "1103033275", "FromBus": "124017071671059141680", "CustomerName": "TEVES -FRANCOIS/RAULIA #02", "Address": "COGON WEST -CARMEN", "CustomerType": "R", "PeriodCovered": "201902", "NumberOfDays": "31", "NumberOfHours": "744", "KWHR_month": "16", "pf": "0.95", "Picture": ""}, "geometry": {  "type": "Point",  "coordinates": [ 124.017071673311, 10.5914168049063 ]  } }
 , 
{ "type": "Feature",  "properties": {  "JAEDType": "VarLoad", "CustomerID": "1103033236", "FromBus": "124017045571059139422", "CustomerName": "CAPUNO -LUCENO/CORSINA", "Address": "COGON WEST -CARMEN", "CustomerType": "R", "PeriodCovered": "201902", "NumberOfDays": "31", "NumberOfHours": "744", "KWHR_month": "95", "pf": "0.95", "Picture": ""}, "geometry": {  "type": "Point",  "coordinates": [ 124.017045573311, 10.5913942249063 ]  } }
 , 
{ "type": "Feature",  "properties": {  "JAEDType": "VarLoad", "CustomerID": "1103033233", "FromBus": "124017266871059129489", "CustomerName": "MONTEGRANDE -MICHAEL/LOURDES #01", "Address": "COGON WEST -CARMEN", "CustomerType": "R", "PeriodCovered": "201902", "NumberOfDays": "31", "NumberOfHours": "744", "KWHR_month": "27", "pf": "0.95", "Picture": ""}, "geometry": {  "type": "Point",  "coordinates": [ 124.017266873311, 10.5912948949063 ]  } }
 , 
{ "type": "Feature",  "properties": {  "JAEDType": "VarLoad", "CustomerID": "1103083478", "FromBus": "124017440801059131004", "CustomerName": "MACOL -JOEL BORIS/ALMERA", "Address": "COGON WEST -CARMEN", "CustomerType": "R", "PeriodCovered": "201902", "NumberOfDays": "31", "NumberOfHours": "744", "KWHR_month": "1", "pf": "0.95", "Picture": ""}, "geometry": {  "type": "Point",  "coordinates": [ 124.017440800093, 10.5913100392829 ]  } }
 , 
{ "type": "Feature",  "properties": {  "JAEDType": "VarLoad", "CustomerID": "1103033232", "FromBus": "124017450071059131562", "CustomerName": "MACOL -RICARDO/JOSEFINA", "Address": "COGON WEST -CARMEN", "CustomerType": "R", "PeriodCovered": "201902", "NumberOfDays": "31", "NumberOfHours": "744", "KWHR_month": "167", "pf": "0.95", "Picture": ""}, "geometry": {  "type": "Point",  "coordinates": [ 124.017450073311, 10.5913156249063 ]  } }
 , 
{ "type": "Feature",  "properties": {  "JAEDType": "VarLoad", "CustomerID": "1116170601", "FromBus": "124024962671060672388", "CustomerName": "COLE -EDNA MAE CUMPIO", "Address": " -FUENTE -CARMEN", "CustomerType": "R", "PeriodCovered": "201902", "NumberOfDays": "31", "NumberOfHours": "744", "KWHR_month": "2", "pf": "0.95", "Picture": ""}, "geometry": {  "type": "Point",  "coordinates": [ 124.024962673311, 10.6067238849058 ]  } }
 , 
{ "type": "Feature",  "properties": {  "JAEDType": "VarLoad", "CustomerID": "1116130809", "FromBus": "124024970971060682388", "CustomerName": "ABELLA -JOSE ARDIN/MYRNA #02", "Address": "PUENTE -CARMEN", "CustomerType": "R", "PeriodCovered": "201902", "NumberOfDays": "31", "NumberOfHours": "744", "KWHR_month": "36", "pf": "0.95", "Picture": ""}, "geometry": {  "type": "Point",  "coordinates": [ 124.024970973311, 10.6068238849058 ]  } }
 , 
{ "type": "Feature",  "properties": {  "JAEDType": "VarLoad", "CustomerID": "1124032781", "FromBus": "124024989371060685221", "CustomerName": "CAANGAY -BERNARDO/MERCEDES", "Address": "FUENTE -CARMEN", "CustomerType": "R", "PeriodCovered": "201902", "NumberOfDays": "31", "NumberOfHours": "744", "KWHR_month": "21", "pf": "0.95", "Picture": ""}, "geometry": {  "type": "Point",  "coordinates": [ 124.024989373311, 10.6068522149058 ]  } }
 , 
{ "type": "Feature",  "properties": {  "JAEDType": "VarLoad", "CustomerID": "1124032771", "FromBus": "124024948891060729702", "CustomerName": "COLE -ISMAEL/GREGORIA", "Address": "FUENTE -CARMEN", "CustomerType": "R", "PeriodCovered": "201902", "NumberOfDays": "31", "NumberOfHours": "744", "KWHR_month": "1", "pf": "0.95", "Picture": ""}, "geometry": {  "type": "Point",  "coordinates": [ 124.024948891233, 10.6072970199395 ]  } }
 , 
{ "type": "Feature",  "properties": {  "JAEDType": "VarLoad", "CustomerID": "1124068637", "FromBus": "124024932291060731702", "CustomerName": "CAANGAY -NESTOR", "Address": "PUENTE -CARMEN", "CustomerType": "R", "PeriodCovered": "201902", "NumberOfDays": "31", "NumberOfHours": "744", "KWHR_month": "160", "pf": "0.95", "Picture": ""}, "geometry": {  "type": "Point",  "coordinates": [ 124.024932291214, 10.6073170199323 ]  } }
 , 
{ "type": "Feature",  "properties": {  "JAEDType": "VarLoad", "CustomerID": "1110134111", "FromBus": "124027244371061452221", "CustomerName": "CARMEN MUN. - GUARD HS./SONIA PUA", "Address": "FUENTE -CARMEN", "CustomerType": "P", "PeriodCovered": "201902", "NumberOfDays": "31", "NumberOfHours": "744", "KWHR_month": "9", "pf": "0.95", "Picture": ""}, "geometry": {  "type": "Point",  "coordinates": [ 124.027244373311, 10.6145222149056 ]  } }
 , 
{ "type": "Feature",  "properties": {  "JAEDType": "VarLoad", "CustomerID": "1101032624", "FromBus": "124027284371062044388", "CustomerName": "ALEGARBES -PEREGRINO/MACARIA", "Address": "FUENTE -CARMEN", "CustomerType": "R", "PeriodCovered": "201902", "NumberOfDays": "31", "NumberOfHours": "744", "KWHR_month": "23", "pf": "0.95", "Picture": ""}, "geometry": {  "type": "Point",  "coordinates": [ 124.027284373311, 10.6204438849054 ]  } }
 , 
{ "type": "Feature",  "properties": {  "JAEDType": "VarLoad", "CustomerID": "1101032623", "FromBus": "124027210971062038555", "CustomerName": "ALIGARBES -GOMERCINDO", "Address": "FUENTE -CARMEN", "CustomerType": "R", "PeriodCovered": "201902", "NumberOfDays": "31", "NumberOfHours": "744", "KWHR_month": "59", "pf": "0.95", "Picture": ""}, "geometry": {  "type": "Point",  "coordinates": [ 124.027210973311, 10.6203855549054 ]  } }
 , 
{ "type": "Feature",  "properties": {  "JAEDType": "VarLoad", "CustomerID": "1101170609", "FromBus": "124027257671062034221", "CustomerName": "ALIGARBES -GILBERT/EVELYN", "Address": "FUENTE -CARMEN", "CustomerType": "R", "PeriodCovered": "201902", "NumberOfDays": "31", "NumberOfHours": "744", "KWHR_month": "25", "pf": "0.95", "Picture": ""}, "geometry": {  "type": "Point",  "coordinates": [ 124.027257673311, 10.6203422149054 ]  } }
 , 
{ "type": "Feature",  "properties": {  "JAEDType": "VarLoad", "CustomerID": "1101170612", "FromBus": "124027277671062032388", "CustomerName": "ALIGARBES -GAUDIOSO/PETRA", "Address": "FUENTE -CARMEN", "CustomerType": "R", "PeriodCovered": "201902", "NumberOfDays": "31", "NumberOfHours": "744", "KWHR_month": "30", "pf": "0.95", "Picture": ""}, "geometry": {  "type": "Point",  "coordinates": [ 124.027277673311, 10.6203238849054 ]  } }
 , 
{ "type": "Feature",  "properties": {  "JAEDType": "VarLoad", "CustomerID": "1101032622", "FromBus": "124027124371062027388", "CustomerName": "ALEGARBES -MANUEL", "Address": "FUENTE -CARMEN", "CustomerType": "R", "PeriodCovered": "201902", "NumberOfDays": "31", "NumberOfHours": "744", "KWHR_month": "113", "pf": "0.95", "Picture": ""}, "geometry": {  "type": "Point",  "coordinates": [ 124.027124373311, 10.6202738849054 ]  } }
 , 
{ "type": "Feature",  "properties": {  "JAEDType": "VarLoad", "CustomerID": "1101032625", "FromBus": "124027115971062012055", "CustomerName": "MOYANO -ANGEL", "Address": "FUENTE -CARMEN", "CustomerType": "R", "PeriodCovered": "201902", "NumberOfDays": "31", "NumberOfHours": "744", "KWHR_month": "93", "pf": "0.95", "Picture": ""}, "geometry": {  "type": "Point",  "coordinates": [ 124.027115973311, 10.6201205549054 ]  } }
 , 
{ "type": "Feature",  "properties": {  "JAEDType": "VarLoad", "CustomerID": "1101141623", "FromBus": "124027100971062003721", "CustomerName": "SABANG -BIENVENIDO #04", "Address": "FUENTE -CARMEN", "CustomerType": "R", "PeriodCovered": "201902", "NumberOfDays": "31", "NumberOfHours": "744", "KWHR_month": "968", "pf": "0.95", "Picture": ""}, "geometry": {  "type": "Point",  "coordinates": [ 124.027100973311, 10.6200372149054 ]  } }
 , 
{ "type": "Feature",  "properties": {  "JAEDType": "VarLoad", "CustomerID": "1101136055", "FromBus": "124026582671062002888", "CustomerName": "ABAYON -MARIO/LIEZEL", "Address": "FUENTE -CARMEN", "CustomerType": "R", "PeriodCovered": "201902", "NumberOfDays": "31", "NumberOfHours": "744", "KWHR_month": "166", "pf": "0.95", "Picture": ""}, "geometry": {  "type": "Point",  "coordinates": [ 124.026582673311, 10.6200288849054 ]  } }
 , 
{ "type": "Feature",  "properties": {  "JAEDType": "VarLoad", "CustomerID": "1101080874", "FromBus": "124026319371062010055", "CustomerName": "ABAYON -RUEL SR.", "Address": "FUENTE -CARMEN", "CustomerType": "R", "PeriodCovered": "201902", "NumberOfDays": "31", "NumberOfHours": "744", "KWHR_month": "108", "pf": "0.95", "Picture": ""}, "geometry": {  "type": "Point",  "coordinates": [ 124.026319373311, 10.6201005549054 ]  } }
 , 
{ "type": "Feature",  "properties": {  "JAEDType": "VarLoad", "CustomerID": "1101092095", "FromBus": "124026404371062042055", "CustomerName": "TAOY -FIDEL/NENA", "Address": "FUENTE -CARMEN", "CustomerType": "R", "PeriodCovered": "201902", "NumberOfDays": "31", "NumberOfHours": "744", "KWHR_month": "12", "pf": "0.95", "Picture": ""}, "geometry": {  "type": "Point",  "coordinates": [ 124.026404373311, 10.6204205549054 ]  } }
 , 
{ "type": "Feature",  "properties": {  "JAEDType": "VarLoad", "CustomerID": "1101131364", "FromBus": "124026710971062034388", "CustomerName": "BACO -EDDIE PORE", "Address": "FUENTE -CARMEN", "CustomerType": "R", "PeriodCovered": "201902", "NumberOfDays": "31", "NumberOfHours": "744", "KWHR_month": "30", "pf": "0.95", "Picture": ""}, "geometry": {  "type": "Point",  "coordinates": [ 124.026710973311, 10.6203438849054 ]  } }
 , 
{ "type": "Feature",  "properties": {  "JAEDType": "VarLoad", "CustomerID": "1101062122", "FromBus": "124026832671062033721", "CustomerName": "TAOY -PABLITO - STORE", "Address": "FUENTE -CARMEN", "CustomerType": "R", "PeriodCovered": "201902", "NumberOfDays": "31", "NumberOfHours": "744", "KWHR_month": "3", "pf": "0.95", "Picture": ""}, "geometry": {  "type": "Point",  "coordinates": [ 124.026832673311, 10.6203372149054 ]  } }
 , 
{ "type": "Feature",  "properties": {  "JAEDType": "VarLoad", "CustomerID": "1101130503", "FromBus": "124026982671062047055", "CustomerName": "ALEGARBES -JAIME/YOLANDA", "Address": "FUENTE -CARMEN", "CustomerType": "R", "PeriodCovered": "201902", "NumberOfDays": "31", "NumberOfHours": "744", "KWHR_month": "432", "pf": "0.95", "Picture": ""}, "geometry": {  "type": "Point",  "coordinates": [ 124.026982673311, 10.6204705549054 ]  } }
 , 
{ "type": "Feature",  "properties": {  "JAEDType": "VarLoad", "CustomerID": "1101032621", "FromBus": "124026895971062056055", "CustomerName": "TORAL -EDNA", "Address": "FUENTE -CARMEN", "CustomerType": "R", "PeriodCovered": "201902", "NumberOfDays": "31", "NumberOfHours": "744", "KWHR_month": "617", "pf": "0.95", "Picture": ""}, "geometry": {  "type": "Point",  "coordinates": [ 124.026895973311, 10.6205605549054 ]  } }
 , 
{ "type": "Feature",  "properties": {  "JAEDType": "VarLoad", "CustomerID": "1101068658", "FromBus": "124026797671062052888", "CustomerName": "ENGKOY -CRISTINA", "Address": "FUENTE -CARMEN", "CustomerType": "R", "PeriodCovered": "201902", "NumberOfDays": "31", "NumberOfHours": "744", "KWHR_month": "41", "pf": "0.95", "Picture": ""}, "geometry": {  "type": "Point",  "coordinates": [ 124.026797673311, 10.6205288849054 ]  } }
 , 
{ "type": "Feature",  "properties": {  "JAEDType": "VarLoad", "CustomerID": "1101061356", "FromBus": "124026824151062098258", "CustomerName": "SIMBAJON -ELIZARDO/ROSELLA", "Address": "FUENTE -CARMEN", "CustomerType": "R", "PeriodCovered": "201902", "NumberOfDays": "31", "NumberOfHours": "744", "KWHR_month": "31", "pf": "0.95", "Picture": ""}, "geometry": {  "type": "Point",  "coordinates": [ 124.02682414943, 10.6209825763011 ]  } }
 , 
{ "type": "Feature",  "properties": {  "JAEDType": "VarLoad", "CustomerID": "1101143356", "FromBus": "124026723491062098448", "CustomerName": "FERNANDEZ -CATALINA/RINO", "Address": "FUENTE -CARMEN", "CustomerType": "R", "PeriodCovered": "201902", "NumberOfDays": "31", "NumberOfHours": "744", "KWHR_month": "15", "pf": "0.95", "Picture": ""}, "geometry": {  "type": "Point",  "coordinates": [ 124.02672349409, 10.6209844847753 ]  } }
 , 
{ "type": "Feature",  "properties": {  "JAEDType": "VarLoad", "CustomerID": "1101032620", "FromBus": "124026802671062129555", "CustomerName": "FERRER -SUSANO", "Address": "FUENTE -CARMEN", "CustomerType": "R", "PeriodCovered": "201902", "NumberOfDays": "31", "NumberOfHours": "744", "KWHR_month": "1", "pf": "0.95", "Picture": ""}, "geometry": {  "type": "Point",  "coordinates": [ 124.026802673311, 10.6212955549054 ]  } }
 , 
{ "type": "Feature",  "properties": {  "JAEDType": "VarLoad", "CustomerID": "1101032618", "FromBus": "124026702671062125555", "CustomerName": "SABANG -AURORA#01", "Address": "FUENTE -CARMEN", "CustomerType": "R", "PeriodCovered": "201902", "NumberOfDays": "31", "NumberOfHours": "744", "KWHR_month": "80", "pf": "0.95", "Picture": ""}, "geometry": {  "type": "Point",  "coordinates": [ 124.026702673311, 10.6212555549054 ]  } }
 , 
{ "type": "Feature",  "properties": {  "JAEDType": "VarLoad", "CustomerID": "1101147911", "FromBus": "124026625971062108721", "CustomerName": "LOPEZ -NORMAN/JOAN", "Address": "FUENTE -CARMEN", "CustomerType": "R", "PeriodCovered": "201902", "NumberOfDays": "31", "NumberOfHours": "744", "KWHR_month": "248", "pf": "0.95", "Picture": ""}, "geometry": {  "type": "Point",  "coordinates": [ 124.026625973311, 10.6210872149054 ]  } }
 , 
{ "type": "Feature",  "properties": {  "JAEDType": "VarLoad", "CustomerID": "1101032617", "FromBus": "124026727671062193721", "CustomerName": "QUISEO -MERILON/NERISSA #01", "Address": "FUENTE -CARMEN", "CustomerType": "R", "PeriodCovered": "201902", "NumberOfDays": "31", "NumberOfHours": "744", "KWHR_month": "1", "pf": "0.95", "Picture": ""}, "geometry": {  "type": "Point",  "coordinates": [ 124.026727673311, 10.6219372149054 ]  } }
 , 
{ "type": "Feature",  "properties": {  "JAEDType": "VarLoad", "CustomerID": "1101032619", "FromBus": "124026710971062176055", "CustomerName": "VILLAMOR -VENANCIO", "Address": "FUENTE -CARMEN", "CustomerType": "R", "PeriodCovered": "201902", "NumberOfDays": "31", "NumberOfHours": "744", "KWHR_month": "53", "pf": "0.95", "Picture": ""}, "geometry": {  "type": "Point",  "coordinates": [ 124.026710973311, 10.6217605549054 ]  } }
 , 
{ "type": "Feature",  "properties": {  "JAEDType": "VarLoad", "CustomerID": "1101058862", "FromBus": "124026662671062172055", "CustomerName": "VIERNES -ALLAN/MERLINDA", "Address": "FUENTE -CARMEN", "CustomerType": "R", "PeriodCovered": "201902", "NumberOfDays": "31", "NumberOfHours": "744", "KWHR_month": "173", "pf": "0.95", "Picture": ""}, "geometry": {  "type": "Point",  "coordinates": [ 124.026662673311, 10.6217205549054 ]  } }
 , 
{ "type": "Feature",  "properties": {  "JAEDType": "VarLoad", "CustomerID": "1101143958", "FromBus": "124026520971062173888", "CustomerName": "ROCKY HILLS STREETLIGHTS/JEAN REBUGIDO", "Address": "FUENTE -CARMEN", "CustomerType": "S", "PeriodCovered": "201902", "NumberOfDays": "31", "NumberOfHours": "744", "KWHR_month": "239", "pf": "0.95", "Picture": ""}, "geometry": {  "type": "Point",  "coordinates": [ 124.026520973311, 10.6217388849054 ]  } }
 , 
{ "type": "Feature",  "properties": {  "JAEDType": "VarLoad", "CustomerID": "1101081918", "FromBus": "124026367671062185555", "CustomerName": "YBAÑEZ -GERARDO/LITA", "Address": "FUENTE -CARMEN", "CustomerType": "R", "PeriodCovered": "201902", "NumberOfDays": "31", "NumberOfHours": "744", "KWHR_month": "199", "pf": "0.95", "Picture": ""}, "geometry": {  "type": "Point",  "coordinates": [ 124.026367673311, 10.6218555549054 ]  } }
 , 
{ "type": "Feature",  "properties": {  "JAEDType": "VarLoad", "CustomerID": "1101032614", "FromBus": "124026287671062236721", "CustomerName": "MOLINA -REYNALDO", "Address": "FUENTE -CARMEN", "CustomerType": "R", "PeriodCovered": "201902", "NumberOfDays": "31", "NumberOfHours": "744", "KWHR_month": "42", "pf": "0.95", "Picture": ""}, "geometry": {  "type": "Point",  "coordinates": [ 124.026287673311, 10.6223672149053 ]  } }
 , 
{ "type": "Feature",  "properties": {  "JAEDType": "VarLoad", "CustomerID": "1101060993", "FromBus": "124026291531062221950", "CustomerName": "TEVES -CORNELIO/MIRAFLOR", "Address": "FUENTE -CARMEN", "CustomerType": "R", "PeriodCovered": "201902", "NumberOfDays": "31", "NumberOfHours": "744", "KWHR_month": "58", "pf": "0.95", "Picture": ""}, "geometry": {  "type": "Point",  "coordinates": [ 124.026291529245, 10.6222194954442 ]  } }
 , 
{ "type": "Feature",  "properties": {  "JAEDType": "VarLoad", "CustomerID": "1101032612", "FromBus": "124026298731062220274", "CustomerName": "TOLEDO -NADORA (REST HSE.)", "Address": "FUENTE -CARMEN", "CustomerType": "R", "PeriodCovered": "201902", "NumberOfDays": "31", "NumberOfHours": "744", "KWHR_month": "36", "pf": "0.95", "Picture": ""}, "geometry": {  "type": "Point",  "coordinates": [ 124.026298731313, 10.6222027382979 ]  } }
 , 
{ "type": "Feature",  "properties": {  "JAEDType": "VarLoad", "CustomerID": "1101170678", "FromBus": "124026299371062221221", "CustomerName": "DIGNOS -REAGAN/OPHELIA", "Address": "FUENTE -CARMEN", "CustomerType": "R", "PeriodCovered": "201902", "NumberOfDays": "31", "NumberOfHours": "744", "KWHR_month": "35", "pf": "0.95", "Picture": ""}, "geometry": {  "type": "Point",  "coordinates": [ 124.026299373311, 10.6222122149054 ]  } }
 , 
{ "type": "Feature",  "properties": {  "JAEDType": "VarLoad", "CustomerID": "1101143537", "FromBus": "124026320971062223555", "CustomerName": "BEJOC -ROSELITO/MA. LUZ", "Address": "FUENTE -CARMEN", "CustomerType": "R", "PeriodCovered": "201902", "NumberOfDays": "31", "NumberOfHours": "744", "KWHR_month": "30", "pf": "0.95", "Picture": ""}, "geometry": {  "type": "Point",  "coordinates": [ 124.026320973311, 10.6222355549054 ]  } }
 , 
{ "type": "Feature",  "properties": {  "JAEDType": "VarLoad", "CustomerID": "1101032615", "FromBus": "124026325971062227055", "CustomerName": "YBAÑEZ -JUAN", "Address": "FUENTE -CARMEN", "CustomerType": "R", "PeriodCovered": "201902", "NumberOfDays": "31", "NumberOfHours": "744", "KWHR_month": "1", "pf": "0.95", "Picture": ""}, "geometry": {  "type": "Point",  "coordinates": [ 124.026325973311, 10.6222705549054 ]  } }
 , 
{ "type": "Feature",  "properties": {  "JAEDType": "VarLoad", "CustomerID": "1101132018", "FromBus": "124026472671062223388", "CustomerName": "YBAÑEZ -RANULFO #03", "Address": "FUENTE -CARMEN", "CustomerType": "R", "PeriodCovered": "201902", "NumberOfDays": "31", "NumberOfHours": "744", "KWHR_month": "1", "pf": "0.95", "Picture": ""}, "geometry": {  "type": "Point",  "coordinates": [ 124.026472673311, 10.6222338849054 ]  } }
 , 
{ "type": "Feature",  "properties": {  "JAEDType": "VarLoad", "CustomerID": "1101133854", "FromBus": "124026447671062222721", "CustomerName": "CABAHUG -NILO", "Address": "FUENTE -CARMEN", "CustomerType": "R", "PeriodCovered": "201902", "NumberOfDays": "31", "NumberOfHours": "744", "KWHR_month": "345", "pf": "0.95", "Picture": ""}, "geometry": {  "type": "Point",  "coordinates": [ 124.026447673311, 10.6222272149054 ]  } }
 , 
{ "type": "Feature",  "properties": {  "JAEDType": "VarLoad", "CustomerID": "1101032613", "FromBus": "124026315971062208888", "CustomerName": "YBAÑEZ -RANULFO #01", "Address": "FUENTE -CARMEN", "CustomerType": "R", "PeriodCovered": "201902", "NumberOfDays": "31", "NumberOfHours": "744", "KWHR_month": "455", "pf": "0.95", "Picture": ""}, "geometry": {  "type": "Point",  "coordinates": [ 124.026315973311, 10.6220888849054 ]  } }
 , 
{ "type": "Feature",  "properties": {  "JAEDType": "VarLoad", "CustomerID": "1101032616", "FromBus": "124026272671062249221", "CustomerName": "LIMSON -MARCELINO/ROSALINA", "Address": "FUENTE -CARMEN", "CustomerType": "R", "PeriodCovered": "201902", "NumberOfDays": "31", "NumberOfHours": "744", "KWHR_month": "178", "pf": "0.95", "Picture": ""}, "geometry": {  "type": "Point",  "coordinates": [ 124.026272673311, 10.6224922149053 ]  } }
 , 
{ "type": "Feature",  "properties": {  "JAEDType": "VarLoad", "CustomerID": "1101170116", "FromBus": "124026309371062249555", "CustomerName": "TAGALOG -AILEEN BASAN", "Address": "FUENTE -CARMEN", "CustomerType": "R", "PeriodCovered": "201902", "NumberOfDays": "31", "NumberOfHours": "744", "KWHR_month": "539", "pf": "0.95", "Picture": ""}, "geometry": {  "type": "Point",  "coordinates": [ 124.026309373311, 10.6224955549053 ]  } }
 , 
{ "type": "Feature",  "properties": {  "JAEDType": "VarLoad", "CustomerID": "1101068011", "FromBus": "124026399371062274388", "CustomerName": "KHO -FRANCISCO/BRAULITA", "Address": "FUENTE -CARMEN", "CustomerType": "R", "PeriodCovered": "201902", "NumberOfDays": "31", "NumberOfHours": "744", "KWHR_month": "64", "pf": "0.95", "Picture": ""}, "geometry": {  "type": "Point",  "coordinates": [ 124.026399373311, 10.6227438849053 ]  } }
 , 
{ "type": "Feature",  "properties": {  "JAEDType": "VarLoad", "CustomerID": "1101142372", "FromBus": "124026289371062285388", "CustomerName": "LABANGON -MARY JEAN#02", "Address": "FUENTE -CARMEN", "CustomerType": "R", "PeriodCovered": "201902", "NumberOfDays": "31", "NumberOfHours": "744", "KWHR_month": "775", "pf": "0.95", "Picture": ""}, "geometry": {  "type": "Point",  "coordinates": [ 124.026289373311, 10.6228538849053 ]  } }
 , 
{ "type": "Feature",  "properties": {  "JAEDType": "VarLoad", "CustomerID": "1101032609", "FromBus": "124026300971062301888", "CustomerName": "CASTILLO -PIO JR./JUDY #01", "Address": "FUENTE -CARMEN", "CustomerType": "R", "PeriodCovered": "201902", "NumberOfDays": "31", "NumberOfHours": "744", "KWHR_month": "2", "pf": "0.95", "Picture": ""}, "geometry": {  "type": "Point",  "coordinates": [ 124.026300973311, 10.6230188849053 ]  } }
 , 
{ "type": "Feature",  "properties": {  "JAEDType": "VarLoad", "CustomerID": "1101032611", "FromBus": "124026194371062272388", "CustomerName": "JAMBRICH -CONCEPCION/WILHELM", "Address": "FUENTE -CARMEN", "CustomerType": "R", "PeriodCovered": "201902", "NumberOfDays": "31", "NumberOfHours": "744", "KWHR_month": "1", "pf": "0.95", "Picture": ""}, "geometry": {  "type": "Point",  "coordinates": [ 124.026194373311, 10.6227238849053 ]  } }
 , 
{ "type": "Feature",  "properties": {  "JAEDType": "VarLoad", "CustomerID": "1101142438", "FromBus": "124025895971062310221", "CustomerName": "TAGALOG -JERNAN/JENERYN VERANO", "Address": "BUYO -FUENTE -CARMEN", "CustomerType": "R", "PeriodCovered": "201902", "NumberOfDays": "31", "NumberOfHours": "744", "KWHR_month": "46", "pf": "0.95", "Picture": ""}, "geometry": {  "type": "Point",  "coordinates": [ 124.025895973311, 10.6231022149053 ]  } }
 , 
{ "type": "Feature",  "properties": {  "JAEDType": "VarLoad", "CustomerID": "1101149688", "FromBus": "124025799371062314555", "CustomerName": "TAOY -GINA LESWE", "Address": "BUYO -FUENTE -CARMEN", "CustomerType": "R", "PeriodCovered": "201902", "NumberOfDays": "31", "NumberOfHours": "744", "KWHR_month": "11", "pf": "0.95", "Picture": ""}, "geometry": {  "type": "Point",  "coordinates": [ 124.025799373311, 10.6231455549053 ]  } }
 , 
{ "type": "Feature",  "properties": {  "JAEDType": "VarLoad", "CustomerID": "1101148679", "FromBus": "124025770971062321721", "CustomerName": "TAOY -REYNAN/SHIRLEY LESWE", "Address": "BUYO -FUENTE -CARMEN", "CustomerType": "R", "PeriodCovered": "201902", "NumberOfDays": "31", "NumberOfHours": "744", "KWHR_month": "8", "pf": "0.95", "Picture": ""}, "geometry": {  "type": "Point",  "coordinates": [ 124.025770973311, 10.6232172149053 ]  } }
 , 
{ "type": "Feature",  "properties": {  "JAEDType": "VarLoad", "CustomerID": "1101142739", "FromBus": "124025652671062328721", "CustomerName": "TAOY -LOURDES PONO", "Address": "BUYO -FUENTE -CARMEN", "CustomerType": "R", "PeriodCovered": "201902", "NumberOfDays": "31", "NumberOfHours": "744", "KWHR_month": "3", "pf": "0.95", "Picture": ""}, "geometry": {  "type": "Point",  "coordinates": [ 124.025652673311, 10.6232872149053 ]  } }
 , 
{ "type": "Feature",  "properties": {  "JAEDType": "VarLoad", "CustomerID": "1101135508", "FromBus": "124025975971062335888", "CustomerName": "BEJOC -ROLAND/ZENAIDA", "Address": "FUENTE -CARMEN", "CustomerType": "R", "PeriodCovered": "201902", "NumberOfDays": "31", "NumberOfHours": "744", "KWHR_month": "50", "pf": "0.95", "Picture": ""}, "geometry": {  "type": "Point",  "coordinates": [ 124.025975973311, 10.6233588849053 ]  } }
 , 
{ "type": "Feature",  "properties": {  "JAEDType": "VarLoad", "CustomerID": "1101134933", "FromBus": "124025969371062327888", "CustomerName": "ZANORIA -LEA ORDINARIO", "Address": "BUYO-FUENTE -CARMEN -CEBU", "CustomerType": "R", "PeriodCovered": "201902", "NumberOfDays": "31", "NumberOfHours": "744", "KWHR_month": "44", "pf": "0.95", "Picture": ""}, "geometry": {  "type": "Point",  "coordinates": [ 124.025969373311, 10.6232788849053 ]  } }
 , 
{ "type": "Feature",  "properties": {  "JAEDType": "VarLoad", "CustomerID": "1101075624", "FromBus": "124026042671062327055", "CustomerName": "ALVAREZ -ALLAN/GERALDINE", "Address": "PUENTE -CARMEN", "CustomerType": "R", "PeriodCovered": "201902", "NumberOfDays": "31", "NumberOfHours": "744", "KWHR_month": "11", "pf": "0.95", "Picture": ""}, "geometry": {  "type": "Point",  "coordinates": [ 124.026042673311, 10.6232705549053 ]  } }
 , 
{ "type": "Feature",  "properties": {  "JAEDType": "VarLoad", "CustomerID": "1101132929", "FromBus": "124026117671062324888", "CustomerName": "BEJOC -DIONESIO/PABLITA #03", "Address": "FUENTE -CARMEN", "CustomerType": "R", "PeriodCovered": "201902", "NumberOfDays": "31", "NumberOfHours": "744", "KWHR_month": "620", "pf": "0.95", "Picture": ""}, "geometry": {  "type": "Point",  "coordinates": [ 124.026117673311, 10.6232488849053 ]  } }
 , 
{ "type": "Feature",  "properties": {  "JAEDType": "VarLoad", "CustomerID": "1106033979", "FromBus": "124018814171059103261", "CustomerName": "CANET -MARIANO/LAURA", "Address": "PUB. MKT. -CARMEN", "CustomerType": "C", "PeriodCovered": "201902", "NumberOfDays": "31", "NumberOfHours": "744", "KWHR_month": "39", "pf": "0.95", "Picture": ""}, "geometry": {  "type": "Point",  "coordinates": [ 124.018814173311, 10.5910326149063 ]  } }
 , 
{ "type": "Feature",  "properties": {  "JAEDType": "VarLoad", "CustomerID": "1106061662", "FromBus": "124018815081059103259", "CustomerName": "PONGAUTAN -FLORENCIO #02- STORE", "Address": "COGON EAST -CARMEN", "CustomerType": "C", "PeriodCovered": "201902", "NumberOfDays": "31", "NumberOfHours": "744", "KWHR_month": "107", "pf": "0.95", "Picture": ""}, "geometry": {  "type": "Point",  "coordinates": [ 124.018815079631, 10.5910325878907 ]  } }
 , 
{ "type": "Feature",  "properties": {  "JAEDType": "VarLoad", "CustomerID": "1120034537", "FromBus": "124014342481058721819", "CustomerName": "ABELLA -RESTITUTO/ADELA", "Address": "BARING -CARMEN", "CustomerType": "R", "PeriodCovered": "201902", "NumberOfDays": "31", "NumberOfHours": "744", "KWHR_month": "108", "pf": "0.95", "Picture": ""}, "geometry": {  "type": "Point",  "coordinates": [ 124.014342481341, 10.5872181916099 ]  } }
 , 
{ "type": "Feature",  "properties": {  "JAEDType": "VarLoad", "CustomerID": "1106033984", "FromBus": "124018814871059103247", "CustomerName": "PONO -ROSITA #01", "Address": "PUB. MKT. -CARMEN", "CustomerType": "C", "PeriodCovered": "201902", "NumberOfDays": "31", "NumberOfHours": "744", "KWHR_month": "11", "pf": "0.95", "Picture": ""}, "geometry": {  "type": "Point",  "coordinates": [ 124.018814874488, 10.5910324707635 ]  } }
 , 
{ "type": "Feature",  "properties": {  "JAEDType": "VarLoad", "CustomerID": "1106033972", "FromBus": "124018642531059095096", "CustomerName": "BATANAY -CEMINA (STORE)", "Address": "COGON EAST -CARMEN", "CustomerType": "C", "PeriodCovered": "201902", "NumberOfDays": "31", "NumberOfHours": "744", "KWHR_month": "19", "pf": "0.95", "Picture": ""}, "geometry": {  "type": "Point",  "coordinates": [ 124.018642527278, 10.5909509554767 ]  } }
 , 
{ "type": "Feature",  "properties": {  "JAEDType": "VarLoad", "CustomerID": "1106033962", "FromBus": "124018648761059094352", "CustomerName": "JAIME -PEREGRINA", "Address": "PUB. MKT. -CARMEN", "CustomerType": "C", "PeriodCovered": "201902", "NumberOfDays": "31", "NumberOfHours": "744", "KWHR_month": "17", "pf": "0.95", "Picture": ""}, "geometry": {  "type": "Point",  "coordinates": [ 124.018648755469, 10.5909435233047 ]  } }
 , 
{ "type": "Feature",  "properties": {  "JAEDType": "VarLoad", "CustomerID": "1106082610", "FromBus": "124018657911059093855", "CustomerName": "ANELYS STORE #02", "Address": "PUB. MKT. -CARMEN", "CustomerType": "C", "PeriodCovered": "201902", "NumberOfDays": "31", "NumberOfHours": "744", "KWHR_month": "1", "pf": "0.95", "Picture": ""}, "geometry": {  "type": "Point",  "coordinates": [ 124.018657906532, 10.5909385518566 ]  } }
 , 
{ "type": "Feature",  "properties": {  "JAEDType": "VarLoad", "CustomerID": "1106053533", "FromBus": "124018668731059093399", "CustomerName": "SIMPORIOS -JOVENCIO #1", "Address": "PUB. MKT. -CARMEN", "CustomerType": "C", "PeriodCovered": "201902", "NumberOfDays": "31", "NumberOfHours": "744", "KWHR_month": "21", "pf": "0.95", "Picture": ""}, "geometry": {  "type": "Point",  "coordinates": [ 124.018668725757, 10.5909339877181 ]  } }
 , 
{ "type": "Feature",  "properties": {  "JAEDType": "VarLoad", "CustomerID": "1106033996", "FromBus": "124018664641059095871", "CustomerName": "MATA -RIZALDO", "Address": "PUB. MKT. -CARMEN", "CustomerType": "C", "PeriodCovered": "201902", "NumberOfDays": "31", "NumberOfHours": "744", "KWHR_month": "11", "pf": "0.95", "Picture": ""}, "geometry": {  "type": "Point",  "coordinates": [ 124.018664640371, 10.5909587072061 ]  } }
 , 
{ "type": "Feature",  "properties": {  "JAEDType": "VarLoad", "CustomerID": "1106033988", "FromBus": "124018667121059095376", "CustomerName": "TUNGAL -JOSE/MERCEDITA #01", "Address": "PUB. MKT. -CARMEN", "CustomerType": "C", "PeriodCovered": "201902", "NumberOfDays": "31", "NumberOfHours": "744", "KWHR_month": "63", "pf": "0.95", "Picture": ""}, "geometry": {  "type": "Point",  "coordinates": [ 124.018667124244, 10.5909537573145 ]  } }
 , 
{ "type": "Feature",  "properties": {  "JAEDType": "VarLoad", "CustomerID": "1106033999", "FromBus": "124018670021059094757", "CustomerName": "PONO -EUFRACIO", "Address": "PUB. MKT. -CARMEN", "CustomerType": "C", "PeriodCovered": "201902", "NumberOfDays": "31", "NumberOfHours": "744", "KWHR_month": "23", "pf": "0.95", "Picture": ""}, "geometry": {  "type": "Point",  "coordinates": [ 124.01867001856, 10.5909475725205 ]  } }
 , 
{ "type": "Feature",  "properties": {  "JAEDType": "VarLoad", "CustomerID": "1106132077", "FromBus": "124018675421059094344", "CustomerName": "PALAWAN PAWNSHOP/B. CASTRO #02", "Address": "PUBLIC MKT. -CARMEN", "CustomerType": "C", "PeriodCovered": "201902", "NumberOfDays": "31", "NumberOfHours": "744", "KWHR_month": "525", "pf": "0.95", "Picture": ""}, "geometry": {  "type": "Point",  "coordinates": [ 124.018675419868, 10.5909434370913 ]  } }
 , 
{ "type": "Feature",  "properties": {  "JAEDType": "VarLoad", "CustomerID": "1106141750", "FromBus": "124018683081059094111", "CustomerName": "BEJOC -YOLANDA YOLDAN", "Address": "PUBLIC MKT. POBLACION -CARMEN", "CustomerType": "C", "PeriodCovered": "201902", "NumberOfDays": "31", "NumberOfHours": "744", "KWHR_month": "31", "pf": "0.95", "Picture": ""}, "geometry": {  "type": "Point",  "coordinates": [ 124.018683078708, 10.590941107302 ]  } }
 , 
{ "type": "Feature",  "properties": {  "JAEDType": "VarLoad", "CustomerID": "1107034260", "FromBus": "124020613561059260971", "CustomerName": "URSAL -GEMMA", "Address": "COGON EAST -CARMEN", "CustomerType": "R", "PeriodCovered": "201902", "NumberOfDays": "31", "NumberOfHours": "744", "KWHR_month": "116", "pf": "0.95", "Picture": ""}, "geometry": {  "type": "Point",  "coordinates": [ 124.020613562264, 10.5926097111079 ]  } }
 , 
{ "type": "Feature",  "properties": {  "JAEDType": "VarLoad", "CustomerID": "1107034298", "FromBus": "124020508171059260891", "CustomerName": "ROBINSON -L./ARANETA A.", "Address": "COGON EAST -CARMEN", "CustomerType": "R", "PeriodCovered": "201902", "NumberOfDays": "31", "NumberOfHours": "744", "KWHR_month": "372", "pf": "0.95", "Picture": ""}, "geometry": {  "type": "Point",  "coordinates": [ 124.020508173646, 10.5926089121158 ]  } }
 , 
{ "type": "Feature",  "properties": {  "JAEDType": "VarLoad", "CustomerID": "1107034301", "FromBus": "124020513071059260786", "CustomerName": "LATO -ADOLFO/ARECIA #01", "Address": "COGON EAST -CARMEN", "CustomerType": "R", "PeriodCovered": "201902", "NumberOfDays": "31", "NumberOfHours": "744", "KWHR_month": "192", "pf": "0.95", "Picture": ""}, "geometry": {  "type": "Point",  "coordinates": [ 124.020513073643, 10.5926078621118 ]  } }
 , 
{ "type": "Feature",  "properties": {  "JAEDType": "VarLoad", "CustomerID": "1107034295", "FromBus": "124020508141059259812", "CustomerName": "BONTIA -BERNARDO/MERCEDES", "Address": "COGON EAST -CARMEN", "CustomerType": "R", "PeriodCovered": "201902", "NumberOfDays": "31", "NumberOfHours": "744", "KWHR_month": "101", "pf": "0.95", "Picture": ""}, "geometry": {  "type": "Point",  "coordinates": [ 124.020508135316, 10.5925981223617 ]  } }
 , 
{ "type": "Feature",  "properties": {  "JAEDType": "VarLoad", "CustomerID": "1107034294", "FromBus": "124020516371059260258", "CustomerName": "LATO -SABINA", "Address": "COGON EAST -CARMEN", "CustomerType": "R", "PeriodCovered": "201902", "NumberOfDays": "31", "NumberOfHours": "744", "KWHR_month": "73", "pf": "0.95", "Picture": ""}, "geometry": {  "type": "Point",  "coordinates": [ 124.020516373638, 10.5926025821095 ]  } }
 , 
{ "type": "Feature",  "properties": {  "JAEDType": "VarLoad", "CustomerID": "1107090295", "FromBus": "124020517671059259772", "CustomerName": "DEGUILMO -DANA RUSS", "Address": "COGON EAST -CARMEN", "CustomerType": "R", "PeriodCovered": "201902", "NumberOfDays": "31", "NumberOfHours": "744", "KWHR_month": "75", "pf": "0.95", "Picture": ""}, "geometry": {  "type": "Point",  "coordinates": [ 124.020517673633, 10.5925977221088 ]  } }
 , 
{ "type": "Feature",  "properties": {  "JAEDType": "VarLoad", "CustomerID": "1107093904", "FromBus": "124020519171059259417", "CustomerName": "CAPUYAN -ROBERT", "Address": "COGON EAST-BURGOS ST. -CARMEN", "CustomerType": "R", "PeriodCovered": "201902", "NumberOfDays": "31", "NumberOfHours": "744", "KWHR_month": "130", "pf": "0.95", "Picture": ""}, "geometry": {  "type": "Point",  "coordinates": [ 124.02051917363, 10.5925941721078 ]  } }
 , 
{ "type": "Feature",  "properties": {  "JAEDType": "VarLoad", "CustomerID": "1107149789", "FromBus": "124020142831059217987", "CustomerName": "HERMOSO -HAROLD", "Address": "COGON EAST -CARMEN", "CustomerType": "R", "PeriodCovered": "201902", "NumberOfDays": "31", "NumberOfHours": "744", "KWHR_month": "92", "pf": "0.95", "Picture": ""}, "geometry": {  "type": "Point",  "coordinates": [ 124.020142830682, 10.5921798709033 ]  } }
 , 
{ "type": "Feature",  "properties": {  "JAEDType": "VarLoad", "CustomerID": "1107146667", "FromBus": "124020722271059333222", "CustomerName": "GERONA -ELROY/AGUSTINA", "Address": "WASHINGTON ST. -COGON EAST -CARMEN", "CustomerType": "R", "PeriodCovered": "201902", "NumberOfDays": "31", "NumberOfHours": "744", "KWHR_month": "199", "pf": "0.95", "Picture": ""}, "geometry": {  "type": "Point",  "coordinates": [ 124.020722271204, 10.5933322181214 ]  } }
 , 
{ "type": "Feature",  "properties": {  "JAEDType": "VarLoad", "CustomerID": "1118033352", "FromBus": "124014310101059268417", "CustomerName": "TARONA -ROGELIO/ARTEMIA", "Address": "BARING -CARMEN", "CustomerType": "R", "PeriodCovered": "201902", "NumberOfDays": "31", "NumberOfHours": "744", "KWHR_month": "61", "pf": "0.95", "Picture": ""}, "geometry": {  "type": "Point",  "coordinates": [ 124.014310103874, 10.5926841735092 ]  } }
 , 
{ "type": "Feature",  "properties": {  "JAEDType": "VarLoad", "CustomerID": "1118033353", "FromBus": "124014303431059267893", "CustomerName": "PAZ -RODRIGO/CLARITA", "Address": "BARING -CARMEN", "CustomerType": "R", "PeriodCovered": "201902", "NumberOfDays": "31", "NumberOfHours": "744", "KWHR_month": "174", "pf": "0.95", "Picture": ""}, "geometry": {  "type": "Point",  "coordinates": [ 124.014303432088, 10.5926789339384 ]  } }
 , 
{ "type": "Feature",  "properties": {  "JAEDType": "VarLoad", "CustomerID": "1118135513", "FromBus": "124014309741059267519", "CustomerName": "TARONA -GENALYN MANINGO", "Address": "BARING -CARMEN -CEBU", "CustomerType": "R", "PeriodCovered": "201902", "NumberOfDays": "31", "NumberOfHours": "744", "KWHR_month": "115", "pf": "0.95", "Picture": ""}, "geometry": {  "type": "Point",  "coordinates": [ 124.014309741586, 10.5926751870427 ]  } }
 , 
{ "type": "Feature",  "properties": {  "JAEDType": "VarLoad", "CustomerID": "1118099444", "FromBus": "124014297471059267328", "CustomerName": "SINGSON -JOVITO/PANTALEONA", "Address": "BARING -CARMEN", "CustomerType": "R", "PeriodCovered": "201902", "NumberOfDays": "31", "NumberOfHours": "744", "KWHR_month": "80", "pf": "0.95", "Picture": ""},